[{"name":"Brazzaville","ascii":"Brazzaville","alternates":["BZV","Braza","Brazavil","Brazavil'","Brazavilis","Brazavilo","Brazzavil","Brazzavil'","Maya-Maya","Mprazabil","N'Tamo","beulajabil"],"lat":-4.26613,"lng":15.28318,"population":1982000},{"name":"Pointe-Noire","ascii":"Pointe-Noire","alternates":["PNR","Puehnt-Nuar","Puent Nuaras","bwant nwar","po'inta-noyara","ponta-nu'ara","powantonowaru","poyenta-noyara","puaengteunualeu","pwant nwar","pwanٹ nwar","pwanټ nwar"],"lat":-4.77609,"lng":11.86352,"population":1032000},{"name":"Dolisie","ascii":"Dolisie","alternates":["DIS","Dolisi","Dolisje","Dolizi","Dolosie","Loubomo","Lubomo","dolisi","dolliji","dorishi","duo li xi","dwlysy"],"lat":-4.19834,"lng":12.66664,"population":121000},{"name":"Nkayi","ascii":"Nkayi","alternates":["NKY"],"lat":-4.18396,"lng":13.2859,"population":103000},{"name":"Kayes","ascii":"Kayes","alternates":["Jacob","Kai","Kajes","Kaye","Kaï","Кайес"],"lat":-4.20493,"lng":13.28608,"population":58737},{"name":"Impfondo","ascii":"Impfondo","alternates":["Desbordesville","ION","Imponfo","ambfwndw","ampfwndw","imapaphondo","impaphando","imphondo","inpufondo","iም phpondo","Импфондо","إمبفوندو"],"lat":1.61804,"lng":18.05981,"population":48939},{"name":"Ouesso","ascii":"Ouesso","alternates":["OUE","Ouésso","Uehsso","awysw","o'eso","oyeso","uesso","ʿoweso","Уэссо","أويسو","اويسو","اویسو"],"lat":1.61361,"lng":16.05167,"population":40667},{"name":"Owando","ascii":"Owando","alternates":["FTX","Fort Pousset","Fort-Rousset","Ouando","Ovando","awwandw","awwndw","ovando","owando","oyando","ʿowanido","Овандо"],"lat":-0.48193,"lng":15.89988,"population":35698},{"name":"Sibiti","ascii":"Sibiti","alternates":["SIB","Sibidi","sbyty","shibiti","sibiti","sybyty","Сибити","سبيتي","سبیتی","سيبيتي","سیبیتی","सिबिती"],"lat":-3.68192,"lng":13.34985,"population":33122},{"name":"Loutété","ascii":"Loutete","alternates":[],"lat":-4.29611,"lng":13.85083,"population":27726},{"name":"Bouansa","ascii":"Bouansa","alternates":["Bouenza","Le Briz","Moukoukoulou","Moukoulou","Moukouloukoulou"],"lat":-4.21861,"lng":13.76167,"population":27512},{"name":"Gamboma","ascii":"Gamboma","alternates":["GMM"],"lat":-1.87639,"lng":15.86444,"population":26718},{"name":"Loandjili","ascii":"Loandjili","alternates":["Louantili","roanjiri","ロアンジリ"],"lat":-4.75611,"lng":11.85778,"population":23204},{"name":"Mossaka","ascii":"Mossaka","alternates":["Village Mossaka"],"lat":-1.21982,"lng":16.79921,"population":21809},{"name":"Mindouli","ascii":"Mindouli","alternates":[],"lat":3.10278,"lng":18.51111,"population":20985},{"name":"Oyo","ascii":"Oyo","alternates":[],"lat":-1.165,"lng":15.97,"population":20630},{"name":"Makoua","ascii":"Makoua","alternates":["MKJ","Makoue"],"lat":0.00694,"lng":15.63333,"population":20550},{"name":"Loudima","ascii":"Loudima","alternates":["Loudima Poste","Louidma"],"lat":-4.11616,"lng":13.06755,"population":20391},{"name":"Mossendjo","ascii":"Mossendjo","alternates":["MSX","Massendjo","Mossendio"],"lat":-2.94968,"lng":12.70423,"population":19104},{"name":"Mouyondzi","ascii":"Mouyondzi","alternates":["MUY","Mouionzi","Mouyondji","Muyonzi"],"lat":-3.99437,"lng":13.92719,"population":18321},{"name":"Bétou","ascii":"Betou","alternates":["BTB"],"lat":3.055,"lng":18.51722,"population":16221},{"name":"Djambala","ascii":"Djambala","alternates":["DJM","Dambala","Djamballa","Dzhambala","jamabala","jambala","janbara","jaምbala","jmbala","jyambala","Джамбала","جامبالا"],"lat":-2.53806,"lng":14.7541,"population":15372},{"name":"Pokola","ascii":"Pokola","alternates":[],"lat":1.405,"lng":16.31833,"population":15102},{"name":"Ngo","ascii":"Ngo","alternates":["Bessala","Bossala","N'Gao","N’Gao"],"lat":-2.48722,"lng":15.75556,"population":14606},{"name":"Makabana","ascii":"Makabana","alternates":["KMK"],"lat":-3.46333,"lng":12.60556,"population":13401},{"name":"Kinkala","ascii":"Kinkala","alternates":["kikala","kinakala","kinikala","kinkala","kinkara","knkala","kynkala","Кинкала","كينكالا","کنکالا","کینکالا","किंकाला"],"lat":-4.35859,"lng":14.76465,"population":12411},{"name":"Ewo","ascii":"Ewo","alternates":["EWO","Ehvo","Eouo","awww","ayww","aywww","e'oyo","euo","ivo","ʿewo","Эво","إيوو"],"lat":-0.87465,"lng":14.81648,"population":11750},{"name":"Etoumbi","ascii":"Etoumbi","alternates":["Ehtumbi","Etoumpi","Etumbi","Etumbio","Etumbis","ai tong bi","atwmby","etounbi","etumbi","Ετούμπι","Етумби","Етумбі"],"lat":0.02889,"lng":14.90556,"population":11139},{"name":"Boundji","ascii":"Boundji","alternates":["BOE","Saint-Francois de Boundji","Saint-François de Boundji"],"lat":-1.02605,"lng":15.35914,"population":10224},{"name":"Dongou","ascii":"Dongou","alternates":["Dongue"],"lat":2.04806,"lng":18.05472,"population":10188},{"name":"Komono","ascii":"Komono","alternates":[],"lat":-3.2775,"lng":13.22611,"population":9169},{"name":"Kellé","ascii":"Kelle","alternates":["KEE","Kelli"],"lat":-0.0654,"lng":14.49959,"population":9089},{"name":"Enyellé","ascii":"Enyelle","alternates":["Envelle","Envellé","Enyele","Enyielle","Enyiellé","Enyélé"],"lat":2.8075,"lng":18.01167,"population":8697},{"name":"Kindamba","ascii":"Kindamba","alternates":["Kindanba","Kindemba"],"lat":-3.7275,"lng":14.52111,"population":8630},{"name":"Nzassi","ascii":"Nzassi","alternates":["Nzasi"],"lat":-4.98111,"lng":12.03972,"population":8585},{"name":"Olombo","ascii":"Olombo","alternates":["OLL","Ollombo"],"lat":-1.2653,"lng":15.89996,"population":7821},{"name":"Loukoléla","ascii":"Loukolela","alternates":["Lukolela"],"lat":-1.03806,"lng":17.11389,"population":7602},{"name":"Sémbé","ascii":"Sembe","alternates":["Ssembe"],"lat":1.64806,"lng":14.58056,"population":7153},{"name":"Mbinda","ascii":"Mbinda","alternates":[],"lat":-2.10778,"lng":12.87083,"population":6335},{"name":"Zanaga","ascii":"Zanaga","alternates":["ANJ"],"lat":-2.85028,"lng":13.82611,"population":5941},{"name":"Ntokou-Raymondville","ascii":"Ntokou-Raymondville","alternates":["Ntokou-Remondville"],"lat":0.0,"lng":16.39083,"population":5909},{"name":"Lékana","ascii":"Lekana","alternates":["Lecania","Lekania"],"lat":-2.32528,"lng":14.6,"population":5828},{"name":"Mokéko","ascii":"Mokeko","alternates":["Mokelo","Mokélo"],"lat":1.56333,"lng":15.94111,"population":5758},{"name":"Divenié","ascii":"Divenie","alternates":["Divanie","Divanié","Divegni","Divina","Divégni","Divénié"],"lat":-2.67722,"lng":12.08556,"population":5739},{"name":"Souanké","ascii":"Souanke","alternates":["SOE","Souanke-Semne","Suangue","Suangué","Zouanke","Zouanké"],"lat":2.05966,"lng":14.13219,"population":5693},{"name":"Kimongo","ascii":"Kimongo","alternates":[],"lat":-4.475,"lng":12.9425,"population":4278},{"name":"Hinda","ascii":"Hinda","alternates":["Inda"],"lat":-4.61333,"lng":12.04361,"population":3788},{"name":"Epéna","ascii":"Epena","alternates":["EPN","Epana"],"lat":1.3525,"lng":17.4525,"population":3257},{"name":"Kibangou","ascii":"Kibangou","alternates":[],"lat":-4.16667,"lng":12.06667,"population":3069},{"name":"Abala","ascii":"Abala","alternates":[],"lat":-3.36,"lng":15.47583,"population":2584},{"name":"Ngabé","ascii":"Ngabe","alternates":["N'Gaba","N’Gaba"],"lat":-3.21472,"lng":16.17361,"population":2508},{"name":"Mvouti","ascii":"Mvouti","alternates":["Mvuti","Vouti"],"lat":-4.24639,"lng":12.48889,"population":2052},{"name":"Mabombo","ascii":"Mabombo","alternates":["Mabombo IV"],"lat":-3.97611,"lng":13.57694,"population":1955},{"name":"Baratier","ascii":"Baratier","alternates":["Kibouende","Kibouendé","Kibuende"],"lat":-4.15417,"lng":14.90194,"population":1936},{"name":"Boko","ascii":"Boko","alternates":["Bogo"],"lat":-0.42306,"lng":15.7475,"population":1936},{"name":"Tchikapika","ascii":"Tchikapika","alternates":["Tchekapika","Tchékapika"],"lat":-1.26444,"lng":16.18028,"population":1306},{"name":"Madingou","ascii":"Madingou","alternates":["Madingo","Madingu","madigau","madingau","madingu","madinigo","madngw","madynghw","madyngw","Мадингу","مادنگو","مادينغو"],"lat":-4.15361,"lng":13.55,"population":1153},{"name":"Boukiéro","ascii":"Boukiero","alternates":["Mont Boukiero","Mont Boukiéro"],"lat":-4.19861,"lng":15.285,"population":504},{"name":"Loango","ascii":"Loango","alternates":["lo'ango","loyango","loʿenigo","lwanghw","lwangw","lwanګw","roango","Лоанго","لوانغو","لوانګو","لوانگو","लोआंगो"],"lat":-4.65602,"lng":11.81032,"population":0},{"name":"Nyanga","ascii":"Nyanga","alternates":[],"lat":-2.91408,"lng":11.88751,"population":0}]