[{"name":"Moroni","ascii":"Moroni","alternates":["Maroni","Moronio","Moronis","Morony","Moròni","Muruni","Móróní","YVA","mo luo ni","mo ro ni","moloni","moroni"],"lat":-11.70216,"lng":43.25506,"population":74749},{"name":"Moutsamoudou","ascii":"Moutsamoudou","alternates":["Matsamudu","Mucomodu","Mutsamudu","Mutsomodu","mautasamaudau","mutisamudu","mutsamaudau","mutsusamudou","mwtsamwdw","Мутсамуду","Муцомоду","موتسامودو"],"lat":-12.16672,"lng":44.39944,"population":26313},{"name":"Fomboni","ascii":"Fomboni","alternates":["Fumboni","fonboni","fwmbwny","phomboni","Фомбони","Фомбонӣ","فومبوني","فومبونی","फोम्बोनी","ফোম্বোনি","ਫੋਮ੍ਬੋਨੀ","ፎምboni"],"lat":-12.28759,"lng":43.74344,"population":17291},{"name":"Tsimbeo","ascii":"Tsimbeo","alternates":["Cimbeo","Tsembehou","Tsembéhou","Tsémbehou","Tsémbéhou","symbyhw","tonbeu","Цимбео","Ցիմբեո","صيمبيهو","トンベウー"],"lat":-12.20583,"lng":44.46472,"population":12590},{"name":"Domoni","ascii":"Domoni","alternates":["Deumoni","Domonis","domoni","duo mo ni shi","dwmwny","Домони","Դոմոնի","دومونى","دوموني","ドモニ","多摩尼市"],"lat":-12.26067,"lng":44.52947,"population":12262},{"name":"Mirontsi","ascii":"Mirontsi","alternates":["myrwntsy","ميرونتسي"],"lat":-12.1604,"lng":44.40986,"population":11955},{"name":"Adda-Douéni","ascii":"Adda-Doueni","alternates":["Adda Daoueni","Adda Daouéni","Adda-Daoueni","Adda-Daouéni","Adda-Dueni","ada dwyny","ada-dwyny","Ադդա-Դուենի","أدا دويني","ادا دوينى","ادا-دوئنی","アッドア・ダウエニ"],"lat":-12.2925,"lng":44.49722,"population":10858},{"name":"Ouani","ascii":"Ouani","alternates":["AJN","Oani","Ouany","Owani","awany","wani","Ուանի","أواني","اوانى","ワニ"],"lat":-12.13554,"lng":44.42493,"population":10073},{"name":"Nkourani","ascii":"Nkourani","alternates":["Nkourani Sima","Nkourani ya Sima"],"lat":-11.38972,"lng":43.28806,"population":10000},{"name":"Sima","ascii":"Sima","alternates":["shima","syma","Сима","Սիմա","سيما","シマ"],"lat":-12.19556,"lng":44.27667,"population":8737},{"name":"Koni-Djodjo","ascii":"Koni-Djodjo","alternates":["Koni","Koni Djodjo","Koni-Jojo","koni=jojo","kwny","kwny jwjw","Կոնի-Ջոջո","كونى جوجو","كوني","كوني جوجو","コニ＝ジョジョ"],"lat":-12.22972,"lng":44.48167,"population":8109},{"name":"Moya","ascii":"Moya","alternates":[],"lat":-12.30967,"lng":44.43685,"population":7529},{"name":"Barakani","ascii":"Barakani","alternates":[],"lat":-12.13861,"lng":44.43026,"population":6089},{"name":"Chandra","ascii":"Chandra","alternates":["Chanda"],"lat":-12.195,"lng":44.46472,"population":5645},{"name":"Ouellah","ascii":"Ouellah","alternates":[],"lat":-11.39028,"lng":43.33194,"population":5478},{"name":"Ikoni","ascii":"Ikoni","alternates":[],"lat":-11.74487,"lng":43.2371,"population":5474},{"name":"Mrémani","ascii":"Mremani","alternates":["Mrenani","mrmany","muremani","مرمانی","ムレマニ"],"lat":-12.30833,"lng":44.49861,"population":5470},{"name":"Mbéni","ascii":"Mbeni","alternates":["ambyny","mubeni","إمبيني","امبينى","ムベニ"],"lat":-11.50139,"lng":43.3775,"population":5128},{"name":"Mramani","ascii":"Mramani","alternates":["M'Ramoni","M’Ramoni","muramani","Мрамани","Մրամանի","ムラマニ"],"lat":-12.34639,"lng":44.52861,"population":5126},{"name":"Koki","ascii":"Koki","alternates":[],"lat":-12.17139,"lng":44.44167,"population":4929},{"name":"Mitsamiouli","ascii":"Mitsamiouli","alternates":["Mitsamihouh","Mitsumiuli","Mtamuhuli"],"lat":-11.38472,"lng":43.28444,"population":4811},{"name":"Mvouni","ascii":"Mvouni","alternates":["muvuni","ムヴニ"],"lat":-11.71965,"lng":43.2752,"population":4791},{"name":"Tsidjé","ascii":"Tsidje","alternates":[],"lat":-11.70137,"lng":43.27057,"population":4600},{"name":"Kangani","ascii":"Kangani","alternates":[],"lat":-12.32102,"lng":44.4727,"population":3711},{"name":"Lingoni","ascii":"Lingoni","alternates":["lyngwny","lynkny","lynqwny","Лингони","لينكنى","لينكني","لینقونی","لینگونی"],"lat":-12.25583,"lng":44.41833,"population":3583},{"name":"Ntsoudjini","ascii":"Ntsoudjini","alternates":["Mitsoudjini","Mitsudje","Mitsuje","Tsudjim","Tsudjin","Tsudjini","Tsujuni"],"lat":-11.66077,"lng":43.27157,"population":3559},{"name":"Foumbouni","ascii":"Foumbouni","alternates":["Fomboni","Mbagini","Mbajini"],"lat":-11.86537,"lng":43.49529,"population":3386},{"name":"Koni-Ngani","ascii":"Koni-Ngani","alternates":["Kone N'Goni","Kone N’Goni"],"lat":-12.21583,"lng":44.48,"population":3288},{"name":"Mitsoudjé","ascii":"Mitsoudje","alternates":[],"lat":-11.81209,"lng":43.28043,"population":3129},{"name":"Mjimandra","ascii":"Mjimandra","alternates":["M'Jimanda","Moujimada","M’Jimanda"],"lat":-12.19167,"lng":44.37028,"population":3114},{"name":"Ntsaouéni","ascii":"Ntsaoueni","alternates":["Mitsaoueni","Mtsaoueni","Tsaueni"],"lat":-11.46583,"lng":43.26278,"population":2760},{"name":"Bambao","ascii":"Bambao","alternates":["Bambao M'Sanga","Bambao M’Sanga"],"lat":-12.20325,"lng":44.51638,"population":2699},{"name":"Nioumachoua","ascii":"Nioumachoua","alternates":["Niomachoi","Nioumachoi","Nioumgchoi","Numa Choa"],"lat":-12.36139,"lng":43.71528,"population":2687},{"name":"Itsandra","ascii":"Itsandra","alternates":["Icandra","Itsandha","Itsandra Mdjini","Ицандра"],"lat":-11.67638,"lng":43.26466,"population":2684},{"name":"Daji","ascii":"Daji","alternates":[],"lat":-12.32583,"lng":44.48861,"population":2676},{"name":"Dembéni","ascii":"Dembeni","alternates":["Debeni","Djembeni"],"lat":-11.87361,"lng":43.39778,"population":2657},{"name":"Chouani","ascii":"Chouani","alternates":["Chadjouni"],"lat":-11.8233,"lng":43.29429,"population":2615},{"name":"Vouani","ascii":"Vouani","alternates":["Voani","Voany"],"lat":-12.24417,"lng":44.37444,"population":2513},{"name":"Hajoho","ascii":"Hajoho","alternates":[],"lat":-12.12434,"lng":44.48881,"population":2505},{"name":"Boungouéni","ascii":"Boungoueni","alternates":[],"lat":-12.20556,"lng":44.29944,"population":2465},{"name":"Chironkamba","ascii":"Chironkamba","alternates":["bandorani=shironkanba","chyrwn kamba","tshyrwnkamba","تشيرونكامبا","چیرون کامبا","バンドラニ＝シロンカンバ"],"lat":-12.19111,"lng":44.3525,"population":2391},{"name":"Chezani","ascii":"Chezani","alternates":["Cezani"],"lat":-11.4314,"lng":43.39625,"population":2322},{"name":"Singani","ascii":"Singani","alternates":[],"lat":-11.84784,"lng":43.31731,"population":2309},{"name":"Magnassini-Nindri","ascii":"Magnassini-Nindri","alternates":["majnasyny nyndry","ماجناسينى نيندرى","ماجناسيني نيندري"],"lat":-12.27806,"lng":44.41583,"population":2213},{"name":"Kyo","ascii":"Kyo","alternates":["Niambahamoro"],"lat":-12.33222,"lng":44.51917,"population":2209},{"name":"Kavani","ascii":"Kavani","alternates":[],"lat":-12.19194,"lng":44.26944,"population":2160},{"name":"Djoyézi","ascii":"Djoyezi","alternates":["Djoiezi","Mudjiauesi","Mujiauesi"],"lat":-12.30587,"lng":43.77425,"population":2096},{"name":"Ongoni","ascii":"Ongoni","alternates":["awngwny","awnjwny","awnqwny","Онгони","أونجوني","اونجونى","اونقونی","اونگونی"],"lat":-12.17028,"lng":44.50694,"population":2058},{"name":"Koimbani","ascii":"Koimbani","alternates":["Combani","Kombani"],"lat":-11.62306,"lng":43.35667,"population":2054},{"name":"Bimbini","ascii":"Bimbini","alternates":["bymbyny","Бимбини","بيمبينى","بيمبيني","بیمبینی"],"lat":-12.18833,"lng":44.23556,"population":2052},{"name":"Mohoro","ascii":"Mohoro","alternates":[],"lat":-11.82701,"lng":43.45436,"population":2014},{"name":"Hantsindzi","ascii":"Hantsindzi","alternates":[],"lat":-11.43178,"lng":43.41102,"population":2004},{"name":"Dzahadjou","ascii":"Dzahadjou","alternates":["Dzahadju","Dzahaja"],"lat":-11.85287,"lng":43.34987,"population":2000},{"name":"Ouhozi","ascii":"Ouhozi","alternates":["Oukhozi","Оухози"],"lat":-11.405,"lng":43.28222,"population":1930},{"name":"Bandamadji-Domba","ascii":"Bandamadji-Domba","alternates":["Bandamadji","Bandamadri","Bandamadxi","Bandamadzi","Bandamaji"],"lat":-11.78788,"lng":43.45356,"population":1929},{"name":"Ouanani","ascii":"Ouanani","alternates":["Oanani","Wanani","wanani","wanany","Оуанани","وانانى","واناني","ワナニ"],"lat":-12.3375,"lng":43.7975,"population":1917},{"name":"Pajé","ascii":"Paje","alternates":[],"lat":-12.16972,"lng":44.38806,"population":1894},{"name":"Ouzini","ascii":"Ouzini","alternates":["Ousini"],"lat":-12.26722,"lng":44.47972,"population":1886},{"name":"Vanadjou","ascii":"Vanadjou","alternates":[],"lat":-11.6075,"lng":43.27611,"population":1830},{"name":"Bandajou","ascii":"Bandajou","alternates":[],"lat":-12.19167,"lng":44.28694,"population":1816},{"name":"Douniani","ascii":"Douniani","alternates":["dwnyany","Доуниани","دونیانی"],"lat":-11.42111,"lng":43.28889,"population":1778},{"name":"Dziani","ascii":"Dziani","alternates":["dzyany","دزيانى","دزياني"],"lat":-12.18333,"lng":44.48333,"population":1754},{"name":"Oussivo","ascii":"Oussivo","alternates":["Ousivo","Оусиво"],"lat":-11.585,"lng":43.26722,"population":1708},{"name":"Harembo","ascii":"Harembo","alternates":["Kharembo","harmbw","Харембо","هارمبو"],"lat":-12.15108,"lng":44.49828,"population":1698},{"name":"Salimani","ascii":"Salimani","alternates":["Selimani"],"lat":-11.8115,"lng":43.26823,"population":1662},{"name":"Séléa","ascii":"Selea","alternates":[],"lat":-11.78756,"lng":43.27036,"population":1662},{"name":"Vanambouani","ascii":"Vanambouani","alternates":["Vanamboini","fanambwyny","wnmbyny","Ванамбоуани","فانامبوينى","فانامبويني","ونمبینی"],"lat":-11.61139,"lng":43.25306,"population":1654},{"name":"Mandza","ascii":"Mandza","alternates":[],"lat":-11.41806,"lng":43.29528,"population":1602},{"name":"Patsi","ascii":"Patsi","alternates":["Patsy","Wilson"],"lat":-12.15556,"lng":44.43722,"population":1498},{"name":"Mjamaoué","ascii":"Mjamaoue","alternates":["Jamaue","Jamaué"],"lat":-12.19361,"lng":44.31,"population":1490},{"name":"Chindini","ascii":"Chindini","alternates":["Chendini","Shendini"],"lat":-11.92328,"lng":43.49109,"population":1471},{"name":"Héroumbili","ascii":"Heroumbili","alternates":["Iroumbili","Irumbilli"],"lat":-11.54389,"lng":43.37972,"population":1463},{"name":"Ourovéni","ascii":"Ouroveni","alternates":[],"lat":-11.91375,"lng":43.49804,"population":1419},{"name":"Maraharé","ascii":"Marahare","alternates":["Marahabe","Marahabé","marahary","ماراهارى","ماراهاري"],"lat":-12.23083,"lng":44.31333,"population":1415},{"name":"Mtakoudja","ascii":"Mtakoudja","alternates":[],"lat":-12.26111,"lng":43.70361,"population":1410},{"name":"Koua","ascii":"Koua","alternates":[],"lat":-11.40514,"lng":43.34713,"population":1391},{"name":"Mavingouni","ascii":"Mavingouni","alternates":[],"lat":-11.71953,"lng":43.26233,"population":1390},{"name":"Itsandzéni","ascii":"Itsandzeni","alternates":[],"lat":-11.47278,"lng":43.38444,"population":1382},{"name":"Bambadjani","ascii":"Bambadjani","alternates":["bmbadjany","بمبادجانی"],"lat":-11.47861,"lng":43.37722,"population":1355},{"name":"Madjeouéni","ascii":"Madjeoueni","alternates":[],"lat":-11.82167,"lng":43.27806,"population":1320},{"name":"Ivouani","ascii":"Ivouani","alternates":["Inani","Iuani","Ivoini"],"lat":-11.39157,"lng":43.39454,"population":1317},{"name":"Bahani","ascii":"Bahani","alternates":["Bakhani","bahany","Бахани","باهانی"],"lat":-11.63972,"lng":43.28417,"population":1272},{"name":"Ziroudani","ascii":"Ziroudani","alternates":["zyrwdany","Зироудани","زيرودانى","زيروداني"],"lat":-12.3325,"lng":43.7775,"population":1197},{"name":"Antsahé","ascii":"Antsahe","alternates":["antsahy","أنتساهي","انتساهى"],"lat":-12.35639,"lng":44.5225,"population":1180},{"name":"Mtsamdou","ascii":"Mtsamdou","alternates":["Mcamdou","Мцамдоу"],"lat":-11.60694,"lng":43.38056,"population":1171},{"name":"Hoani","ascii":"Hoani","alternates":["Khoani","hwany","Хоани","هوانى","هواني"],"lat":-12.25083,"lng":43.67472,"population":1114},{"name":"Assimpao","ascii":"Assimpao","alternates":["Asimpao","asymbaw","asympayw","Асимпао","آسیمپائو","أسيمباو","اسيمباو"],"lat":-12.23306,"lng":44.31972,"population":1112},{"name":"Bouni","ascii":"Bouni","alternates":[],"lat":-11.48694,"lng":43.38833,"population":1104},{"name":"Chitrouni","ascii":"Chitrouni","alternates":["chytrwny","shtrwny","Читроуни","شترونى","شتروني","چیترونی"],"lat":-12.18583,"lng":44.33556,"population":1081},{"name":"Nioumamilima","ascii":"Nioumamilima","alternates":[],"lat":-11.85461,"lng":43.44607,"population":1068},{"name":"Dar Salam","ascii":"Dar Salam","alternates":[],"lat":-12.25083,"lng":44.38806,"population":1059},{"name":"Limbi","ascii":"Limbi","alternates":["lymby","ليمبى","ليمبي","لیمبی"],"lat":-12.23944,"lng":44.50528,"population":1037},{"name":"Mnoungou","ascii":"Mnoungou","alternates":[],"lat":-11.51778,"lng":43.37389,"population":1013},{"name":"Wela","ascii":"Wela","alternates":[],"lat":-11.65361,"lng":43.28056,"population":1000},{"name":"Zivandani","ascii":"Zivandani","alternates":["zywandany","Зивандани","زیواندانی"],"lat":-11.64583,"lng":43.26583,"population":976},{"name":"Mdjoyézi","ascii":"Mdjoyezi","alternates":[],"lat":-11.83642,"lng":43.31388,"population":957},{"name":"Vassy","ascii":"Vassy","alternates":["Vassi","wasy","واسی"],"lat":-12.23194,"lng":44.3425,"population":944},{"name":"Panda","ascii":"Panda","alternates":["Panda Gongoue"],"lat":-11.87482,"lng":43.3931,"population":899},{"name":"Milembéni","ascii":"Milembeni","alternates":[],"lat":-12.19806,"lng":44.26389,"population":885},{"name":"Mirongani","ascii":"Mirongani","alternates":["Миронгани"],"lat":-12.19056,"lng":44.2525,"population":882},{"name":"Kangani","ascii":"Kangani","alternates":["Kangam"],"lat":-12.34278,"lng":43.82,"population":856},{"name":"Miringoni","ascii":"Miringoni","alternates":["myrynkwny","ميرينكونى","ميرينكوني"],"lat":-12.29667,"lng":43.63528,"population":834},{"name":"Chomoni","ascii":"Chomoni","alternates":["Chamro"],"lat":-11.64306,"lng":43.38583,"population":807},{"name":"Milembéni","ascii":"Milembeni","alternates":[],"lat":-11.66167,"lng":43.26639,"population":790},{"name":"Hetsa","ascii":"Hetsa","alternates":["Djuaezi","Juaezi","Mdjohezi"],"lat":-11.84472,"lng":43.31583,"population":785},{"name":"Hamavouna","ascii":"Hamavouna","alternates":[],"lat":-12.37306,"lng":43.83833,"population":778},{"name":"Oungoni","ascii":"Oungoni","alternates":[],"lat":-11.75444,"lng":43.43611,"population":765},{"name":"Bibavou","ascii":"Bibavou","alternates":[],"lat":-11.57916,"lng":43.28776,"population":733},{"name":"Milévani","ascii":"Milevani","alternates":[],"lat":-11.5549,"lng":43.29762,"population":729},{"name":"Dima","ascii":"Dima","alternates":[],"lat":-11.88639,"lng":43.41083,"population":698},{"name":"Batsa","ascii":"Batsa","alternates":["Batsa Itsandra","batsa","باتسا"],"lat":-11.62833,"lng":43.26,"population":692},{"name":"Kové","ascii":"Kove","alternates":[],"lat":-11.87583,"lng":43.47222,"population":690},{"name":"Itsamia","ascii":"Itsamia","alternates":[],"lat":-12.36417,"lng":43.86778,"population":611},{"name":"Hamba","ascii":"Hamba","alternates":[],"lat":-12.27444,"lng":43.63194,"population":585},{"name":"Batou","ascii":"Batou","alternates":[],"lat":-11.49861,"lng":43.3575,"population":562},{"name":"Sidjou","ascii":"Sidjou","alternates":[],"lat":-11.67139,"lng":43.405,"population":555},{"name":"Sada-Chihoué","ascii":"Sada-Chihoue","alternates":[],"lat":-11.50944,"lng":43.37611,"population":551},{"name":"Dzahani","ascii":"Dzahani","alternates":[],"lat":-11.65722,"lng":43.27556,"population":523},{"name":"Mbambani","ascii":"Mbambani","alternates":[],"lat":-11.8524,"lng":43.3416,"population":521}]