[{"name":"Al Aḩmadī","ascii":"Al Ahmadi","alternates":["Ahmad","Ahmadi","Ahmedi","Al Aħmadi","Ehl'-Akhmadi","El Ahmedi","aalaahmadi","ahmdy","ala ahamadi","alahmdy","aruahamadi","Əl-Ahmadi"],"lat":29.07694,"lng":48.08389,"population":637411},{"name":"Ḩawallī","ascii":"Hawalli","alternates":["Havalli","Hawali-nogra","Hawally","Hawaly","Khavalli","ha'oyali","havali","havalli","hawali","hawaliy","hawari","hwly"],"lat":29.33278,"lng":48.02861,"population":164212},{"name":"As Sālimīyah","ascii":"As Salimiyah","alternates":["Ad Dumna","Ad Dumnah","Al Salmiya","As-Salimiyah","As-Sālimiyah","Dimnah","Salimiyah","Salmiya","Salmiyah","Salmiyyeh","aalsaalimiat","alsalmyt"],"lat":29.33389,"lng":48.07611,"population":147649},{"name":"Şabāḩ as Sālim","ascii":"Sabah as Salim","alternates":["Sabah Al Salem","Sabah as Salim as Sabbah","sabah aalsaalim","Şabāḩ as Salim aş Sabbāḩ","صَبَاح اَلسَّالِم"],"lat":29.25722,"lng":48.05722,"population":139163},{"name":"Al Farwānīyah","ascii":"Al Farwaniyah","alternates":["Al Farvaniya","Al Farwania","Al-Farawaniyah","Al-Farwaniyyah","Ehl'-Farvanija","El Farvaniye","Farwaniah","Farwaniyyeh","aalfarwaniat","ala phara'oyaniyaha","ala pharavani'a","ala pharavaniya"],"lat":29.2775,"lng":47.95861,"population":86525},{"name":"Al Faḩāḩīl","ascii":"Al Fahahil","alternates":["Al Fuhaihil","Al Fuhayhil","Al Fuħaiħil","Al Fuḩayḩīl","Al Ifhaihil","Al-Fahaheel","Al-Fahahhel","Al-Fahahil","Fahaheel","Fahahil","Fahaihil","Fahaihīl"],"lat":29.0825,"lng":48.13028,"population":68290},{"name":"Kuwait City","ascii":"Kuwait City","alternates":["Al Kuwait","Al Kuwayt","Al-Kuwait","Ciudad de Kuwait","Ehl'-Kuvejt","KWI","Koeweit","Kota Kuwait","Koveyit","Koweit","Koweït","Kuvaeyt"],"lat":29.367,"lng":47.97429,"population":60064},{"name":"Ar Rumaythīyah","ascii":"Ar Rumaythiyah","alternates":["Rumaithiya","aalrumaythiat","alrmythyt","الرميثية","اَلرُّمَيْثِيَّة"],"lat":29.31167,"lng":48.07417,"population":58135},{"name":"Ar Riqqah","ascii":"Ar Riqqah","alternates":["Al-Riqqah","Reqqa","aalriqat","alrqt","الرقة","اَلرِّقَّة"],"lat":29.14583,"lng":48.09472,"population":52068},{"name":"Salwá","ascii":"Salwa","alternates":["Sal'va","salway","slwy","Сальва","سلوى","سَلْوَى"],"lat":29.29583,"lng":48.07861,"population":40945},{"name":"Al Manqaf","ascii":"Al Manqaf","alternates":["Al Manjaf","Al-Mangaf","Manqaf","aalmanqaf","almnqf","المنقف","اَلْمَنْقَف"],"lat":29.09611,"lng":48.13278,"population":39025},{"name":"Ar Rābiyah","ascii":"Ar Rabiyah","alternates":["aalraabiat","اَلرَّابِيَة"],"lat":29.295,"lng":47.93306,"population":36447},{"name":"Bayān","ascii":"Bayan","alternates":["Bajan","bayan","byan","Баян","بيان","بَيَان"],"lat":29.3032,"lng":48.04881,"population":30635},{"name":"Al Jahrā’","ascii":"Al Jahra'","alternates":["Al Jahara","Al Jahra","Al Jahrah","Al-Jaharah","Ehl'-Dzhakhra","El Chra","Iahara","Jahra Village","Jahrah","ala jahara","aljhraʾ","aljہra"],"lat":29.3375,"lng":47.65806,"population":24281},{"name":"Al Finţās","ascii":"Al Fintas","alternates":["Al Fantas","Al Fintass","Al Fintās","Fantas","Fantass","Fanţās","Finatus","Fintas","Fintass","Finţās","Funtas","Funtás"],"lat":29.17389,"lng":48.12111,"population":23071},{"name":"Janūb as Surrah","ascii":"Janub as Surrah","alternates":["South Surra","janub aalsurat","جَنُوب اَلسُّرَّة"],"lat":29.26917,"lng":47.97806,"population":18496},{"name":"Al Mahbūlah","ascii":"Al Mahbulah","alternates":["Al-Mahabulah","Al-Mahabūlah","Mahboola","aalmahbulat","almhbwlt","المهبولة","اَلْمَهْبُولَة"],"lat":29.145,"lng":48.13028,"population":18178},{"name":"Ad Dasmah","ascii":"Ad Dasmah","alternates":["Ad Dasma'","Ad Dasmā’","Dasma","Dasmah","aaldasmat","اَلدَّسْمَة"],"lat":29.365,"lng":48.00139,"population":17585},{"name":"Ash Shāmīyah","ascii":"Ash Shamiyah","alternates":["Al Shamiya","Shamiya","Shamiyah","Shamiyeh","Shamiyyeh","Shamīyah","aalshaamiat","اَلشَّامِيَّة"],"lat":29.34722,"lng":47.96167,"population":13762},{"name":"Al Wafrah","ascii":"Al Wafrah","alternates":["aalwafrat","اَلْوَفْرَة"],"lat":28.63917,"lng":47.93056,"population":10017},{"name":"Mazāri‘ al ‘Abdalī","ascii":"Mazari' al 'Abdali","alternates":["Abdali","Al `Abdali Farms","Al ‘Abdalī Farms","Mazari` al `Abdali","مزارع العبدلي"],"lat":30.04219,"lng":47.72205,"population":6835},{"name":"Az Zawr","ascii":"Az Zawr","alternates":["Az Zaur","Az Zor","Failakka Village","Zor","aalzawr","اَلزَّوْر"],"lat":29.4425,"lng":48.27472,"population":5750},{"name":"Al Murqāb","ascii":"Al Murqab","alternates":["aalmurqab","اَلْمُرْقَاب"],"lat":29.36556,"lng":47.97806,"population":3699},{"name":"Al-Masayel","ascii":"Al-Masayel","alternates":[],"lat":29.2393,"lng":48.08862,"population":2458},{"name":"Al Funayţīs","ascii":"Al Funaytis","alternates":["Al Fanaitis","Al Funaitis","Al-Finaitees","Fanaitis","Fneitees","Fraitsass","Funaitis","Funaitís","Funaytis","Funayţīs","aalfunaytis","alfnytys"],"lat":29.22528,"lng":48.10167,"population":1878},{"name":"Abu Al Hasaniya","ascii":"Abu Al Hasaniya","alternates":[],"lat":29.19076,"lng":48.11355,"population":1350},{"name":"Abu Fatira","ascii":"Abu Fatira","alternates":[],"lat":29.19746,"lng":48.10278,"population":1240},{"name":"Mubārak al Kabīr","ascii":"Mubarak al Kabir","alternates":["Mubarak Al-Kabeer","Mubarak al'-Kabir","Muebarak el Kebir","Mübarak el Kebir","mbark alkbyr","mbark kbyr","mubaraka ala kabira","mubaraku・aru・kabiru","mubareki ʿeል kabiri","Мубарак аль-Кабир","مبارك الكبير","مبارک الکبیر"],"lat":29.18979,"lng":48.08716,"population":0}]