[{"name":"Tripoli","ascii":"Tripoli","alternates":["Aea","Ea","Oea","TIP","Tarables","Tarabulus","Tarabulus al Gharb","Tarabulus el Gharb","Taràbles","Trables","Trablus","Trablûs"],"lat":32.88743,"lng":13.18733,"population":1302947},{"name":"Benghazi","ascii":"Benghazi","alternates":["BEN","Baengasi","Banghazi","Banghāzī","Bengasi","Bengaze","Bengazi","Bengazis","Bengazy","Benghasi","Benghází","Bengázi"],"lat":32.11486,"lng":20.06859,"population":757490},{"name":"Misratah","ascii":"Misratah","alternates":["Al Misratah","MRA","Madinat Misratah","Madīnat Mişrātah","Misrata","Misrataa","Misurata","Mişrātah","misarata","misarataha","misiratahi","misurata"],"lat":32.37535,"lng":15.09254,"population":355657},{"name":"Zliten","ascii":"Zliten","alternates":["Isliten","Islīten","Izliten","Izlīten","QZL","Subgoli","Zalitan","Ziliten","Zlitan","Zlitenas","Zlitán","Zlītan"],"lat":32.46739,"lng":14.56874,"population":203790},{"name":"Al Khums","ascii":"Al Khums","alternates":["Al Hums","Al Jums","Al Ĥums","Al'-Khums","Al-Chums","Al-Khums","Ehl'-Khums","El Choms","El Hums","El Xums","Homs","Humsas"],"lat":32.64861,"lng":14.26191,"population":201943},{"name":"Az Zāwīyah","ascii":"Az Zawiyah","alternates":["Az Zawiya","Az Zawiyah al Gherbiyah","Az Zāwiyah al Gherbīyah","Ehz-Zavija","Ez Zauia","Ez Zaviye","Zauia","Zavia","Zawia","Zawiyah","aja ja'u'iyaha","alzawyh"],"lat":32.7571,"lng":12.72764,"population":200000},{"name":"Zawiya","ascii":"Zawiya","alternates":["Al Harah","Al Ḩārah","El-Hara","El-Hára","Haraf Az Zawiyah","Haraf Az Zāwīyah","Harat az Zawiyah","alzawyt","الزاوية","Ḩārat az Zāwiyah"],"lat":32.75222,"lng":12.72778,"population":186123},{"name":"Janzūr","ascii":"Janzur","alternates":["Zanzur","Zanzūr","jnzwr","جنزور"],"lat":32.81868,"lng":13.01727,"population":154389},{"name":"Sabha","ascii":"Sabha","alternates":["El-Gedid","El-Gedíd","Fort Leclerc","SEB","Sabhaa","Sabhah","Sabhā","Sabkha","Saebha","Saebhiaen","Sebha","Sebhah"],"lat":27.03766,"lng":14.42832,"population":149329},{"name":"Tobruk","ascii":"Tobruk","alternates":["Antipyrgos","Antipyrgus","TOB","Tabruk","Thubruq","Tobroek","Tobrouk","Tobruch","Tobruck","Tobruuk","Tobrúk","Tomprouk"],"lat":32.08963,"lng":23.95385,"population":141499},{"name":"Ajdabiya","ascii":"Ajdabiya","alternates":["AEcdabiya","Adjadabia","Adjdabia","Adjdabía","Adschdabiya","Adzdabija","Adzedabija","Adzhdabija","Adzsdabija","Adzsdábija","Adżdabija","Adždabija"],"lat":30.75545,"lng":20.22625,"population":131773},{"name":"Al Ajaylat","ascii":"Al Ajaylat","alternates":["Agelat","Agelát","Al `Ajaylat","Al `Ujaylat","Al ‘Ajaylāt","Al ‘Ujaylāt","El Agelat","El Ajelat","alʿjylat","العجيلات"],"lat":32.75718,"lng":12.37633,"population":130546},{"name":"Al Bayḑā’","ascii":"Al Bayda'","alternates":["Al Bayda","Al-Baida","Az Zawiyah al Bayda'","Az Zāwiyah al Bayḑā’","Baida","Balagrae","Balis","Bayda","Beda","Beida","Ehl'-Bajda","El Beida"],"lat":32.76272,"lng":21.75506,"population":129439},{"name":"Al Jadīd","ascii":"Al Jadid","alternates":["Al'-Dzhadid","El-Gedid","El-Gedíd","aljdyd","Аль-Джадид","الجديد"],"lat":27.05,"lng":14.4,"population":126386},{"name":"Sirte","ascii":"Sirte","alternates":["Gasr Zaafran","Gasr Zaafrán","Macomades-Euphranta","Qasr Sirt","Qasr Za`faran","Qaşr Sirt","Qaşr Za‘farān","SRX","Sert","Siirtee","Sirt","Sirta"],"lat":31.20892,"lng":16.58866,"population":106705},{"name":"Darnah","ascii":"Darnah","alternates":["DNF","Daernae","Darna","Darnaa","Darnis","Derna","Derne","Därnä","Dérna","darana","daranaha","darinahi"],"lat":32.76704,"lng":22.63669,"population":102581},{"name":"Al Jumayl","ascii":"Al Jumayl","alternates":["Al Jamil","Al Jamīl","El-Gemil","El-Gemìl","aljmyl","الجميل"],"lat":32.85286,"lng":12.0612,"population":102000},{"name":"Qaşr Bin Ghashīr","ascii":"Qasr Bin Ghashir","alternates":[],"lat":32.68333,"lng":13.18333,"population":100069},{"name":"Tājūrā’","ascii":"Tajura'","alternates":["Tagiura","Tajurah","Tājūrāh"],"lat":32.88167,"lng":13.35056,"population":100000},{"name":"Al Marj","ascii":"Al Marj","alternates":["Al'-Mardzh","Ehl'-Marzh","El Marj","El Merj","Maerciaen","Märciän","ala maraja","ala marja","almrj","aru・maruji","Əl-Marzh","ʿaል mariji"],"lat":32.49257,"lng":20.82909,"population":85315},{"name":"Şabrātah","ascii":"Sabratah","alternates":["Madinat Sabratah","Madīnat Şabrātah","Sabra","Sabrah","Sabratha","Sábra","sbratt","Şabrah","صبراتة"],"lat":32.79335,"lng":12.48845,"population":83398},{"name":"Al Ḩurshah","ascii":"Al Hurshah","alternates":["alhrsht","الحرشة"],"lat":32.76472,"lng":12.67389,"population":81119},{"name":"Şurmān","ascii":"Surman","alternates":["Baladiyat Surman","Baladīyat Şurmān","Sorman","Sormán","srman","صرمان"],"lat":32.75668,"lng":12.57159,"population":77114},{"name":"Msalātah","ascii":"Msalatah","alternates":["Al Qasabat","Cussabat","El-Gusbat","El-Gusbát","Masallatah","Masallātah","Msallata","mslatt","مسلاتة"],"lat":32.58345,"lng":14.03627,"population":73907},{"name":"As Sawānī","ascii":"As Sawani","alternates":[],"lat":32.71667,"lng":13.06667,"population":57069},{"name":"Tarhuna","ascii":"Tarhuna","alternates":["El-Buerat","El-Buerát","El-Ubberat","El-Ubberát","Gasr Tarhuna","Qasr Tarhunah","Qaşr Tarhūnah","Tarhunah","Tarhūnah","Tarkhuny","Тархуны"],"lat":32.43501,"lng":13.6332,"population":52420},{"name":"Al ‘Azīzīyah","ascii":"Al 'Aziziyah","alternates":["Al Aziziya","Al Aziziyah","Al `Aziziyah","Azizia","Ehl'-Azizija","El Azizia","El Aziziye","ala ajijiyaha","ala azizi'a","ala aziziya","alʿzyzyh","alʿzyzyt"],"lat":32.53194,"lng":13.0175,"population":52404},{"name":"Qaşr al Qarabūllī","ascii":"Qasr al Qarabulli","alternates":["Castelverde","Gasr Garabulli","Gasr Garabúlli","Gasr el Gharabulli","Gasr el-Garabulli","Gasr el-Garabùlli","Qarabulli","Qarabūllī","Qarah Bulli","Qarah Būllī","Qasr al Qarahbulli","Qaşr al Qarahbullī"],"lat":32.74506,"lng":13.71467,"population":49610},{"name":"At Tāj","ascii":"At Taj","alternates":["Et Tag"],"lat":24.20487,"lng":23.2857,"population":46050},{"name":"Bani Walid","ascii":"Bani Walid","alternates":["Baeni Vaelid","Bani Ualid","Bani Valid","Bani Validas","Bani Valíd","Baní Walíd","Banī Walīd","Beni Ulid","Beni Valid","Beni-Valid","Beniulid","Bäni Välid"],"lat":31.74554,"lng":13.98354,"population":45734},{"name":"Al Jawf","ascii":"Al Jawf","alternates":["AKF","Al Gawf","Al Ğawf","Al-Jof","Ehl'-Dzhauf","El Giof","aljaupeu","aljwf","jaufu","jiao fu","Эль-Джауф","الجوف"],"lat":24.1989,"lng":23.29093,"population":42079},{"name":"Gharyan","ascii":"Gharyan","alternates":["Gaariyaan","Garian","Gariao","Garián","Garião","Garjan","Garyan","Gasr Garian","Gasr Gariàn","Gharyān","QGH","Qaryan"],"lat":32.17222,"lng":13.02028,"population":36110},{"name":"Zuwarah","ascii":"Zuwarah","alternates":["WAX","Zouara","Zuara","Zuava","Zuvara","Zuwaraa","Zuwārah","Zuára","Zuáva","ju'oyaraha","juwala","zu wa la"],"lat":32.9312,"lng":12.08199,"population":33887},{"name":"Ubari","ascii":"Ubari","alternates":["Awbari","Awbārī","Oubari","QUB","Ubarii","awbary","ubari","ʿubari","Убари","أوباري","اوباري","اوباری"],"lat":26.59034,"lng":12.77511,"population":33569},{"name":"Zintan","ascii":"Zintan","alternates":["As-Sintan","Az Zintan","Az Zintān","Ehz-Zintan","Ez-Zintan","Ez-Zintán","ZIS","Zentan","alzntan  lyby","alzntan‎","Эз-Зинтан","الزنتان، لیبی"],"lat":31.93155,"lng":12.25291,"population":33000},{"name":"Al Abyār","ascii":"Al Abyar","alternates":["Alabia","El Abiar","Madirat al Abyar","Madīrat al Abyār","alabyar‎","الأبيار‎"],"lat":32.19,"lng":20.59653,"population":32563},{"name":"Sīdī Bin Zīnah","ascii":"Sidi Bin Zinah","alternates":["Raqdalin","Raqdālīn","Regdalin","Riqdalin","Riqdālīn","Sidi Bu Zinah","Sīdī Bū Zīnah","sydy bn zynt","سيدي بن زينة"],"lat":32.88718,"lng":11.98729,"population":31607},{"name":"Al Burayqah","ascii":"Al Burayqah","alternates":["El-Brega","LMQ","Marsa Brega","Marsa Bregha","Marsa al Burayqah","Marsa el Brega","Marsá al Burayqah","Port Brega","Qasr al Buraygah","Qasr al Burayqah","Qaşr al Burayqah","albryqt"],"lat":30.40624,"lng":19.57386,"population":31300},{"name":"Murzuk","ascii":"Murzuk","alternates":["Marzuq","Marzūq","Mourzouk","Mursuk","Murzuch","Murzuq","Murzuuk","QMQ","mrzq","murajuka","murazuka","murizuki"],"lat":25.91552,"lng":13.91839,"population":30491},{"name":"Shahhat","ascii":"Shahhat","alternates":["Shahat","Shakhkhat","Шаххат","შახატი"],"lat":32.8043,"lng":21.86605,"population":29206},{"name":"Nālūt","ascii":"Nalut","alternates":["Lalut","Lalút","Naalut","naluta","naluti","nalwt","naruto","Налут","نالوت","नालुत","নালুত","ਨਾਲੁਤ"],"lat":31.86848,"lng":10.9812,"population":28431},{"name":"Al Aşābi‘ah","ascii":"Al Asabi'ah","alternates":["Al Asabi`ah","Asabaa","Asábaa","El-Asabaa","El-Asábaa"],"lat":32.03333,"lng":12.86667,"population":27713},{"name":"Az Zahrā’","ascii":"Az Zahra'","alternates":["Bianchi"],"lat":32.67889,"lng":12.87327,"population":25684},{"name":"Al Qubbah","ascii":"Al Qubbah","alternates":["Al Gubbah","Berta","El-Gubba","El-Gúbba","Giovanni Berta","Gubba","alqbt","القبة"],"lat":32.75684,"lng":22.24106,"population":24631},{"name":"Hūn","ascii":"Hun","alternates":["HUQ","Hon","Huun","Khun","Madinat Hun","Madīnat Hūn","fun","huna","hwn","mdynt hwn","Хун","مدينة هون"],"lat":29.12684,"lng":15.94772,"population":24431},{"name":"Al Ghurayfah","ascii":"Al Ghurayfah","alternates":["alghryft","الغريفة"],"lat":26.52161,"lng":13.01072,"population":23449},{"name":"Yafran","ascii":"Yafran","alternates":["Gasr Iefren","Iefren","Jafran","Jefren","Yaefraeniaen","Yafrin","Yäfräniän","Яфран","شعبية يفرن"],"lat":32.06329,"lng":12.52859,"population":22680},{"name":"Az Zuwaytīnah","ascii":"Az Zuwaytinah","alternates":["Ez Zuetina","Ez Zuetína","Marsa Uasili","Qaryat az Zuwaytinah","Qaryat az Zuwaytīnah","Zueitina","Zuetina","Zweytinah","alzwytynt","الزويتينة"],"lat":30.9522,"lng":20.12022,"population":21015},{"name":"An Nāşirīyah","ascii":"An Nasiriyah","alternates":["An Nasariya","Giordani","Jurdani","Jurdānī"],"lat":32.63278,"lng":12.87361,"population":20687},{"name":"Qaryat Sulūq","ascii":"Qaryat Suluq","alternates":["Qaryat Salug","Qaryat Saluq","Qaryat Salūg","Qaryat Salūq","Soluch","Solugh","Solùgh","Suluq","Sulūq","qryt slwq","slwq","سلوق"],"lat":31.66818,"lng":20.25205,"population":19918},{"name":"Qarqūzah","ascii":"Qarquzah","alternates":[],"lat":32.74572,"lng":12.84234,"population":17350},{"name":"Al-'Alūaṣ","ascii":"Al-'Aluas","alternates":[],"lat":32.71007,"lng":13.96713,"population":17122},{"name":"Wādī 'Utbah","ascii":"Wadi 'Utbah","alternates":[],"lat":26.09502,"lng":13.55744,"population":16746},{"name":"Mizdah","ascii":"Mizdah","alternates":["Misdah","Mizda","mzdt","مزدة"],"lat":31.44934,"lng":12.9853,"population":16735},{"name":"Qaşr Khiyār","ascii":"Qasr Khiyar","alternates":["Al-Akhyar","Al-Akhyār","Gasr Chiar","Gasr Gefara","Gasr Gefára","Gasr Kiar","Kiar","Qasr Al Akhyar","Qasr Khivak","Qasr al Jifarah","Qaşr Khivāk","Qaşr al Jifārah"],"lat":32.69677,"lng":13.84634,"population":16708},{"name":"Brak","ascii":"Brak","alternates":["BCQ","Birak","Birāk","Brach","Braka","Brakas","baraka","barka","bi la ke","bilakeu","bra kh","brak"],"lat":27.54956,"lng":14.27139,"population":16200},{"name":"Bin Jawwād","ascii":"Bin Jawwad","alternates":["Bin Quwad","Qaryat Wadi Bin Quwwad","Qaryat Wādī Bin Quwwād","bn jwad","بن جواد"],"lat":30.80418,"lng":18.0772,"population":15509},{"name":"Al Qawāsim","ascii":"Al Qawasim","alternates":["El-Guasem","El-Guásem","Guasem","Guassem","Guásem","Qaryat al Qawasim","Qaryat al Qawāsim"],"lat":32.18418,"lng":13.06045,"population":15134},{"name":"Ar Rayāyinah","ascii":"Ar Rayayinah","alternates":["Er-Riaina","Qabilat Awlad Bu Husayn","Qabīlat Awlād Bū Ḩusayn","Riaina"],"lat":32.02684,"lng":12.35643,"population":15031},{"name":"Ghat","ascii":"Ghat","alternates":["GHT","Gat","Ghaat","Ghāt","Rhat","gati","gatto","ghat","ghata","Гат","غات","घाट"],"lat":24.96334,"lng":10.18003,"population":14630},{"name":"Abū Zayyān","ascii":"Abu Zayyan","alternates":["Abu Ziyyan","Abū Ziyyān","Bu Zaian","Bu Zaián","Bu Zayyan","Bu Zeian","Bū Zayyān"],"lat":32.09972,"lng":12.97861,"population":14332},{"name":"Al Māyah","ascii":"Al Mayah","alternates":["Lamayah","Lamāyah","Lmaia","Lmáia","Oasi di Lmaia","Oasi di Lmàia","almayt","الماية"],"lat":32.80194,"lng":12.87917,"population":14203},{"name":"Zalţan","ascii":"Zaltan","alternates":["Zelten","zltn","زلطن"],"lat":32.94699,"lng":11.86668,"population":14131},{"name":"Jālū","ascii":"Jalu","alternates":["Gialo"],"lat":29.03333,"lng":21.55,"population":13401},{"name":"Tūkrah","ascii":"Tukrah","alternates":["Al `Aquriyah","Al ‘Āqūrīyah","Taukra","Teuchira","Tocra","Tokrah","twkrt","توكرة"],"lat":32.53414,"lng":20.57911,"population":12593},{"name":"Jādū","ascii":"Jadu","alternates":["Giado","jadw","جادو"],"lat":31.95506,"lng":12.02901,"population":12507},{"name":"Ghadames","ascii":"Ghadames","alternates":["Gadames","Gadamis","Gadamés","Ghadamis","Ghadāmis","Ghudamis","Ghudāmis","LTD","Rhadames","ghdams","Гадамес","غدامس"],"lat":30.13366,"lng":9.50072,"population":12096},{"name":"Sūknah","ascii":"Suknah","alternates":["Miani","Sawkanah","Sawknah","Socna","Soknah","swknt","سوكنة"],"lat":29.06941,"lng":15.78266,"population":12077},{"name":"Kiklah","ascii":"Kiklah","alternates":["Chicla"],"lat":32.08333,"lng":12.7,"population":11776},{"name":"Wardāmah","ascii":"Wardamah","alternates":[],"lat":32.79661,"lng":21.79099,"population":11058},{"name":"Umm al Arānib","ascii":"Umm al Aranib","alternates":["Umm al-Aranib","Umm el Araneb","am alaranb","أم الأرانب"],"lat":26.13386,"lng":14.7372,"population":10493},{"name":"Waddān","ascii":"Waddan","alternates":["Uaddan","wdan","ودان"],"lat":29.1614,"lng":16.13904,"population":10150},{"name":"Zillah","ascii":"Zillah","alternates":["Zella","Zilla","zila","zlh","zlt","Зилла","زلة","زله","ზილა"],"lat":28.55099,"lng":17.54358,"population":10030},{"name":"Ar-Raḥaībāt","ascii":"Ar-Rahaibat","alternates":["alrhybat","الرحيبات"],"lat":31.84637,"lng":11.8436,"population":9989},{"name":"Al Barakāt","ascii":"Al Barakat","alternates":["Al Barkat","Al Barkāt","Al Birkah","El Barka","Elbarcat","albrkat","البركات"],"lat":24.894,"lng":10.18336,"population":9908},{"name":"Sīdī aş Şayd","ascii":"Sidi as Sayd","alternates":["Borgo Tazzoli","Sidi as Sid","Sidi as-Sid","Sīdī aş Şīd","Sīdī aṣ-Ṣīd","Tazzoli"],"lat":32.33462,"lng":13.47942,"population":9821},{"name":"Al Khaḑrā’","ascii":"Al Khadra'","alternates":["Breviglieri","الخضراء"],"lat":32.44403,"lng":13.76735,"population":9521},{"name":"Martūbah","ascii":"Martubah","alternates":["Martuba","Martúba","mrtwbt","مرتوبة"],"lat":32.57421,"lng":22.76353,"population":9357},{"name":"Al Bardīyah","ascii":"Al Bardiyah","alternates":["Al-Bardi","Al-Bardī","Bardia","Bardiyah","Bardīyah","Bordi Sleman","Bórdi Slemán","Petras Maior","albrdyt","brdyt","البردية","بردية"],"lat":31.75601,"lng":25.0853,"population":9149},{"name":"Umm ar Rizam","ascii":"Umm ar Rizam","alternates":["Umm ar Razam","Zauia Umm er-Rzem","Zauiet Umm er-Rzem","Zawiyat Umm ar Rizam","Zàuiet Umm er-Rzem","Zāwiyat Umm ar Rizam","am alrzm","أم الرزم"],"lat":32.53332,"lng":23.00904,"population":8742},{"name":"Qamīnis","ascii":"Qaminis","alternates":["Caminus","Ghemines","qmyns","قمينس"],"lat":31.6576,"lng":20.01697,"population":8688},{"name":"Umm Sā'ad","ascii":"Umm Sa'ad","alternates":[],"lat":31.60968,"lng":25.04999,"population":8614},{"name":"Al Abraq","ascii":"Al Abraq","alternates":["Al Labrag","Al Labraq","Al Lazraq","El-Abragh","El-Abràgh","Luigi di Savoia","alabrq","الأبرق"],"lat":32.78991,"lng":22.0005,"population":8276},{"name":"Tarāghin","ascii":"Taraghin","alternates":["Traghan","Traghen","Trāghan","traghn","تراغن"],"lat":25.92333,"lng":14.42056,"population":8167},{"name":"Tāzirbū","ascii":"Tazirbu","alternates":["tazrbw","تازربو"],"lat":25.67289,"lng":21.07286,"population":8085},{"name":"Qaryat ‘Umar al Mukhtār","ascii":"Qaryat 'Umar al Mukhtar","alternates":["'Umar al-Mukhtar","'Umar al-Mukhtār","Mameli","Qaryat `Umar al Mukhtar","`Umar al Mukhtar","قرية عمر المختار","‘Umar al Mukhtār"],"lat":32.62978,"lng":21.67651,"population":8031},{"name":"Massah","ascii":"Massah","alternates":["Luigi Razza","Messa","Méssa","Māssah","Razza","mast","mst","ماسة","مسة"],"lat":32.75249,"lng":21.62807,"population":7831},{"name":"Qandūlah","ascii":"Qandulah","alternates":["qndwlt","قندولة"],"lat":32.53798,"lng":21.57525,"population":7760},{"name":"Kābāw","ascii":"Kabaw","alternates":["Cabao","kabaw","كاباو"],"lat":31.84724,"lng":11.33055,"population":7686},{"name":"Daryānah","ascii":"Daryanah","alternates":["Driana","Driyanah","Driyānah","Driána","Hadrianopolis","Mantigat Daryanah","Mantiqat Daryanah","Manţigat Daryānah","Manţiqat Daryānah","Zauiet Driana","Záuiet Driana","dryant"],"lat":32.34751,"lng":20.30933,"population":7558},{"name":"Tamzāwah","ascii":"Tamzawah","alternates":["Tamzana","Tamzanah","Tamzaua","Tamzána","Tamzānah","tmzawt","تمزاوة"],"lat":27.57154,"lng":14.20234,"population":7410},{"name":"Sūsah","ascii":"Susah","alternates":["Abuluniya","Abūlūniyā","Apollonia","Apollonie","Appolonia","Marsa Susa","Marsa Susah","Marsá Sūsah","Marza-Souza","Màrsa Sùsa","Susa","abwlwnya"],"lat":32.89702,"lng":21.96583,"population":7285},{"name":"Al Qaţrūn","ascii":"Al Qatrun","alternates":["Al Gatrun","Al Katrun","El Gatrun","alqtrwn","القطرون"],"lat":24.95139,"lng":14.64861,"population":7243},{"name":"Qīrah","ascii":"Qirah","alternates":["Ghira","qyrt","قيرة"],"lat":27.58595,"lng":14.35375,"population":6997},{"name":"Kambūt","ascii":"Kambut","alternates":["Gambut","Gasr Cambut","Gasr Cambút","Gasr Gambut","Qasr Kunbuth","Qaşr Kunbūth","kmbwt","كمبوت"],"lat":31.90434,"lng":24.4784,"population":6973},{"name":"Tījī","ascii":"Tiji","alternates":["Tidji","Tigi","tyjy","تيجي"],"lat":32.01493,"lng":11.35461,"population":6905},{"name":"Jardas al ‘Abīd","ascii":"Jardas al 'Abid","alternates":["Gerdes el-Abid","Gerdes el-Abíd","Jardas al `Abid","Jerdes el Abid","jrds alʿbyd","جردس العبيد"],"lat":32.30337,"lng":20.98615,"population":6744},{"name":"Ar Rujbān","ascii":"Ar Rujban","alternates":["Ar-Rajban","Ar-Rajbān","alrjban","الرجبان"],"lat":31.95,"lng":12.16667,"population":6419},{"name":"Daraj","ascii":"Daraj","alternates":["Baldat Daraj","Berdj","Derg","Derj","Dirj","drj","درج"],"lat":30.16502,"lng":10.45804,"population":6051},{"name":"Qaşr Lībiyā","ascii":"Qasr Libiya","alternates":["Qasr Lebia","Qasr Libya"],"lat":32.63333,"lng":21.41667,"population":5975},{"name":"Barqin","ascii":"Barqin","alternates":["Berghin","Brqin","brqn","برقن"],"lat":27.54801,"lng":13.62914,"population":5902},{"name":"Qaryat al Bayyāḑah","ascii":"Qaryat al Bayyadah","alternates":["Al Bayyadah","Al Bayyāḑah","Al-Bayyadah","Al-Bayyāḍah","D'Annuinzio","D'Annunzio","D’Annuinzio","D’Annunzio","qryt albyadt","قرية البياضة"],"lat":32.56501,"lng":21.25415,"population":5538},{"name":"Awjilah","ascii":"Awjilah","alternates":["Augila","Wajilah","awjlt","أوجلة"],"lat":29.10806,"lng":21.28694,"population":5125},{"name":"Qasr Abu Hadi","ascii":"Qasr Abu Hadi","alternates":["Abu Hadi","Kasr Abu Hadi","Kasr Abu-Khadi","Kasr Abu-Khadzi","Qasr Abou Hadi","Qaşr Abū Hādī","Qəsr Əbu-Hadi","kasr-abu-hadi","qsr abw hady","Каср Абу-Хадзі","Каср Абу-Хади","Քասր Աբու Հադի"],"lat":31.05926,"lng":16.65905,"population":4890},{"name":"Āqār","ascii":"Aqar","alternates":["Agar","aqar","آقار"],"lat":27.53914,"lng":14.16251,"population":4832},{"name":"Wāzin","ascii":"Wazin","alternates":["Uazzen","Wazzan","Wazzān","wazn","وازن"],"lat":31.942,"lng":10.66532,"population":4715},{"name":"Idrī","ascii":"Idri","alternates":["Adiri","Adirī","Adri","Adrī","Adīrī","Ederi","Edri","Idrii","adry","idari","idori","idri"],"lat":27.44707,"lng":13.05173,"population":4696},{"name":"Al Ḩawāmid","ascii":"Al Hawamid","alternates":[],"lat":31.97528,"lng":11.16222,"population":4558},{"name":"Samnū","ascii":"Samnu","alternates":["Semnu","smnw","سمنو"],"lat":27.27459,"lng":14.8819,"population":4492},{"name":"Zawīlah","ascii":"Zawilah","alternates":["Zuila","zwylt","زويلة"],"lat":26.16188,"lng":15.12522,"population":4434},{"name":"Qirnādah","ascii":"Qirnadah","alternates":["Qaryat Qimadah","Qaryat Qimādah","Qaryat Qirnadah","Qaryat Qirnādah"],"lat":32.73174,"lng":21.9035,"population":4206},{"name":"Bi’r al Ghanam","ascii":"Bi'r al Ghanam","alternates":["B'ir al-Ghanam","B'īr al-Ghanam","Bir Ghnem","Bir el-Ghnem","byr alghnm","بئر الغنم"],"lat":32.30912,"lng":12.56935,"population":4182},{"name":"Sīnāwin","ascii":"Sinawin","alternates":["Sinauen","Sinawan","Sinnawin","Sinnāwin","Sīnāwan","synawn","سيناون"],"lat":31.02604,"lng":10.60238,"population":4059},{"name":"Al ‘Awinat","ascii":"Al 'Awinat","alternates":["Al Awaynat","Al `Uwaynat","Al ‘Uwaynāt","Aouinet","El-Auenat","El-Auénat","Sardalas","Sardalis","Sardalīs","Serdeles"],"lat":25.78123,"lng":10.56133,"population":3881},{"name":"Qaryat al Qī‘ān","ascii":"Qaryat al Qi'an","alternates":["Badr","Qaryat al Qi`an","قرية القيعان"],"lat":32.05572,"lng":11.54302,"population":3797},{"name":"Sulţān","ascii":"Sultan","alternates":[],"lat":31.09396,"lng":20.22329,"population":3672},{"name":"Al Jaghbūb","ascii":"Al Jaghbub","alternates":["El-Giagbub","El-Giagbúb","Giarabub","Jaghbub","Jaghbūb"],"lat":29.74262,"lng":24.51676,"population":2768},{"name":"Marādah","ascii":"Maradah","alternates":["Marada","mradt","مرادة"],"lat":29.22054,"lng":19.20454,"population":2229},{"name":"Mukhaylá","ascii":"Mukhayla","alternates":["Al Makili","Al Makīlī","Al Mukhayli","Al Mukhaylī","Al-Machili","Al-Mukhili","Al-Mukhīlī","Ehl'-Makili","El Mechili","El-Mechili","El-Mechìli","Mechili"],"lat":32.16005,"lng":22.27845,"population":1764}]