[{"name":"Antananarivo","ascii":"Antananarivo","alternates":["Antananarifo","Antananarivu","Antananariwo","Antananaryvas","Antananaryvu","Antananarywa","Antananarívó","Antenenerivo","TNR","Tana","Tananaribe","Tananarive"],"lat":-18.91368,"lng":47.53613,"population":1349501},{"name":"Toamasina","ascii":"Toamasina","alternates":["TMM","Tamatave","Tuamasina","to'amasina","toamasina","touamashina","toʿemasina","tu a ma xi na","twamasyna","twamsyna","twmasyna","Τοαμασίνα"],"lat":-18.1492,"lng":49.40234,"population":345107},{"name":"Antsirabe","ascii":"Antsirabe","alternates":["ATJ","Ancirabe","Ancirabė","Antisrabe","Sirabe","an qi la bei","anchilabe","antasirabe","antsuirabe","antsyrabh","antsyraby","antsyrabے"],"lat":-19.86586,"lng":47.03333,"population":260907},{"name":"Mahajanga","ascii":"Mahajanga","alternates":["MJN","Machatzan'nka","Mahadzanga","Majunga","Makhadzanga","Makhadzhanga","ma ha zan jia","mahajaga","mahajang-ga","mahajanga","mahajaniga","mahajnګa"],"lat":-15.71667,"lng":46.31667,"population":260556},{"name":"Fianarantsoa","ascii":"Fianarantsoa","alternates":["Fianarancua","WFI","fei ya na lan chu a","fianarantsuoa","fyanarantswa","fyanaratswa","phi'anarantaso'a","phi'anarantso'a","phiyanaransoya","pianalanchoa","pianarantsua","Φιαναραντσόα"],"lat":-21.45267,"lng":47.08569,"population":203105},{"name":"Toliara","ascii":"Toliara","alternates":["TLE","Toliary","Tulear","Tuliara","Tullear","Tuléar","to li xa ra","toli'ara","toliyara","tolliala","touriara","tu li ya la"],"lat":-23.35,"lng":43.66667,"population":178725},{"name":"Antsiranana","ascii":"Antsiranana","alternates":["Anceranana","Antseranana","Antsirana","Antsirane","Antsiran̈ana","DIE","Diego Soarez","Diego-Suarez","Diégo-Suarez","antasiranana","antsuiranana","antsyranana"],"lat":-12.31732,"lng":49.29188,"population":136959},{"name":"Sambava","ascii":"Sambava","alternates":["SVB","Sahambava","Sahambavany","Sambaha","Sampava","campava","sabava","sambaba","sambabha","sambafa","sambava","sambwa"],"lat":-14.26667,"lng":50.16667,"population":89003},{"name":"Imerintsiatosika","ascii":"Imerintsiatosika","alternates":[],"lat":-18.98333,"lng":47.31667,"population":74085},{"name":"Antalaha","ascii":"Antalaha","alternates":["ANM","Antalakhi","Анталахи"],"lat":-14.90033,"lng":50.27876,"population":71898},{"name":"Tôlanaro","ascii":"Tolanaro","alternates":["FTU","Faradofay","Fort-Dauphin","Taolanaro","Tolagnaro","Tôlagnaro","tolanaro","toranaro","twlanarw","twlanarwa","twlnarw","Толанаро"],"lat":-25.03249,"lng":46.98329,"population":71258},{"name":"Antanifotsy","ascii":"Antanifotsy","alternates":[],"lat":-19.65,"lng":47.31667,"population":70626},{"name":"Ambovombe","ascii":"Ambovombe","alternates":["abovombe","ambovombe","ambwfwmby","ambwwmbh","ambwwwmby","ambwwwmbے","anbovuonbe","ayambobhombe","ʿeምbovoምbe","Амбовомбе","امبوفومبي","امبوومبه"],"lat":-25.17838,"lng":46.08722,"population":69265},{"name":"Ambilobe","ascii":"Ambilobe","alternates":["AMB"],"lat":-13.2,"lng":49.05,"population":66029},{"name":"Ambanja","ascii":"Ambanja","alternates":["IVA"],"lat":-13.669,"lng":48.453,"population":63884},{"name":"Moramanga","ascii":"Moramanga","alternates":["OHB"],"lat":-18.94948,"lng":48.23007,"population":60456},{"name":"Antsalova","ascii":"Antsalova","alternates":["WAQ","an cha lu wa","ansarovua","antsalwwa","آنتسالووا","アンサロヴァ","安察卢瓦","安察盧瓦"],"lat":-18.66667,"lng":44.61667,"population":58280},{"name":"Morondava","ascii":"Morondava","alternates":["MOQ","Murundava","molondaba","morondaba","morondabha","morondava","moronidava","mu long da wa","mwrwndafa","mwrwndwa","mwrwnڈawa","mwrwnډawa"],"lat":-20.28869,"lng":44.31782,"population":56671},{"name":"Hell-Ville","ascii":"Hell-Ville","alternates":["Andoani","Andoany","Anduani","Helville","andouani","andwany","Андуани","آندوآنی","أندواني","アンドゥアニ"],"lat":-13.39718,"lng":48.26663,"population":53219},{"name":"Ivato","ascii":"Ivato","alternates":[],"lat":-18.8,"lng":47.48333,"population":52376},{"name":"Ambatondrazaka","ascii":"Ambatondrazaka","alternates":["Ambatonoradrazaka","Ambatundrazaka","WAM","abatondrajaka","ambatondrajaka","ambatwndrazak","ambatwndrazaka","an ba tong de la zha ka","anbatondorazaka","ayambatondrajaka","ʿeምbatonidirazaka","Амбатондразака"],"lat":-17.83333,"lng":48.41667,"population":50463},{"name":"Amboasary","ascii":"Amboasary","alternates":["Amboasary Sud"],"lat":-25.03333,"lng":46.38333,"population":48705},{"name":"Tsiroanomandidy","ascii":"Tsiroanomandidy","alternates":["Cirojanomandidi","WTS","siroyanomandidi","tasironomandidi","tsironomandidi","tsuiroanomandidi","tsyrwanwmandydy","tsyrwnwmndydy","tsyrwnwmnڈyڈy","Циройаномандиди","تسيروانومانديدي","تسیروآنوماندیدی"],"lat":-18.76969,"lng":46.04653,"population":47087},{"name":"Manakara","ascii":"Manakara","alternates":["Manankara","WVK","ma na ka la","manakala","manakara","mnakara","Манакара","Մանակարա","مانakارا","مناکارا","मनकारा","মানাকারা"],"lat":-22.14862,"lng":48.01055,"population":46850},{"name":"Ambalavao","ascii":"Ambalavao","alternates":["Ambalava"],"lat":-21.83333,"lng":46.93333,"population":45784},{"name":"Maroantsetra","ascii":"Maroantsetra","alternates":["Maruancentre","WMN","Маруанцентре"],"lat":-15.43527,"lng":49.73794,"population":45041},{"name":"Fenoarivo Atsinanana","ascii":"Fenoarivo Atsinanana","alternates":["Fenerive","Fenerive-Atsinanana","Fenerive-Est","Fenuarivu Atsinanana","Fénérive-Atsinanana","Fénérive-Est","fenoarivuo・atsuinanana","fnwaryww atsynnana","fynwaryfw atsynanana","fynwaryww aytsynanana","pheno'arivo atasinanana","phenorivo atsinanana"],"lat":-17.38095,"lng":49.40826,"population":44199},{"name":"Ambositra","ascii":"Ambositra","alternates":["Ambosira","abositra","ambositra","ambwstra","ambwsytra","anboshitora","ayambositra","ʿeምbosira","Амбосира","امبوسترا","امبوسيترا","अम्बोसित्रा"],"lat":-20.53034,"lng":47.24344,"population":43504},{"name":"Soavinandriana","ascii":"Soavinandriana","alternates":["Seavinandriana","su a wei nan de li ya na","swafynandryana","swanandryan","Соавинандриана","سوآناندریان","سوافيناندريانا","蘇阿維南德里亞納"],"lat":-19.16667,"lng":46.73333,"population":42410},{"name":"Ihosy","ascii":"Ihosy","alternates":["IHO","Ikhosi","ahwsy","aہwsy","ihoshi","ihosi","ʿihosi","Ихоси","إهوسي","اهوسي","اهوسی","اہوسی"],"lat":-22.40293,"lng":46.12576,"population":41892},{"name":"Marovoay","ascii":"Marovoay","alternates":["Maruvuaj","ma lu wu ai","marw-wway","marwfway","Марувуай","مارو-ووآی","ماروفواي","馬魯武艾"],"lat":-16.11064,"lng":46.64383,"population":41611},{"name":"Vangaindrano","ascii":"Vangaindrano","alternates":["VND","bangendoranu","wan jia yin de la nu","wangayndranw","وانگایندرانو","バンゲーンドラヌ","万加因德拉努","萬加因德拉努"],"lat":-23.35,"lng":47.6,"population":40813},{"name":"Antsohihy","ascii":"Antsohihy","alternates":["Ancokhikhi","Antsohihi","WAI","antasohihi","antsuohihi","antswhyhy","antswہyہy","atasohihi","ʿenitsohihi","Анцохихи","انتسوهيهي","انتسوهیهی"],"lat":-14.87959,"lng":47.98751,"population":40512},{"name":"Ampanihy","ascii":"Ampanihy","alternates":["AMP"],"lat":-24.6937,"lng":44.74581,"population":40244},{"name":"Mahanoro","ascii":"Mahanoro","alternates":["VVB","ma ha nu lu","mahanoro","mahanwrw","ماهانورو","マハノロ","馬哈努魯"],"lat":-19.9,"lng":48.8,"population":40033},{"name":"Ambatofinandrahana","ascii":"Ambatofinandrahana","alternates":[],"lat":-20.55284,"lng":46.80365,"population":39618},{"name":"Andilamena","ascii":"Andilamena","alternates":[],"lat":-17.01009,"lng":48.57313,"population":39428},{"name":"Soanierana Ivongo","ascii":"Soanierana Ivongo","alternates":["Saanierana","Soahierana","Soanierana","Suanierana-Ivungu","sanyyrana ayfwnjw","su a nie la na yi weng gu","swanyrana aywwngw","Суаниерана-Ивунгу","سانييرانا ايفونجو","سوآنیرانا ایوونگو","蘇阿涅拉納伊翁古"],"lat":-16.91667,"lng":49.58333,"population":39271},{"name":"Ikongo","ascii":"Ikongo","alternates":["Fort Carhot","Fort-Carnot","aykwngw","yi kong gu","ایکونگو","伊孔古"],"lat":-21.88333,"lng":47.43333,"population":38851},{"name":"Vavatenina","ascii":"Vavatenina","alternates":["wa wa tai ni na","wwtnyna","Ваватенина","ووتنینا","瓦瓦泰尼納"],"lat":-17.46667,"lng":49.2,"population":37861},{"name":"Faratsiho","ascii":"Faratsiho","alternates":[],"lat":-19.4,"lng":46.95,"population":37563},{"name":"Mananara","ascii":"Mananara","alternates":["Mananara Avaratra","WMR"],"lat":-16.16864,"lng":49.76622,"population":37224},{"name":"Nosy Varika","ascii":"Nosy Varika","alternates":["Nosy-Varika","nu xi wa li ka","nwsy waryka","نوسی واریکا","努西瓦里卡"],"lat":-20.58333,"lng":48.53333,"population":37152},{"name":"Farafangana","ascii":"Farafangana","alternates":["RVA","farafangana","farafanjana","farafngana","farafnګana","pharaphangana","Фарафангана","فارافانجانا","فارافانگانا","فارافنګانا","فارافنگانا","फरफंगना"],"lat":-22.82223,"lng":47.82615,"population":36724},{"name":"Andapa","ascii":"Andapa","alternates":["Distrito de Andapa","ZWA","an da pa","andapa","Андапа","انداپا","アンダパ","安达帕","安達帕"],"lat":-14.65,"lng":49.65,"population":36660},{"name":"Betafo","ascii":"Betafo","alternates":["bei ta fu","btafw","bytafw","Бетафо","بتافو","بيتافو","贝塔富"],"lat":-19.83333,"lng":46.85,"population":36364},{"name":"Ambato Boeny","ascii":"Ambato Boeny","alternates":["Ambato","Ambato Boeni","Ambatoboeny"],"lat":-16.46667,"lng":46.71667,"population":35432},{"name":"Amparafaravola","ascii":"Amparafaravola","alternates":["Amparafarovola","Amparofaravola"],"lat":-17.5876,"lng":48.22391,"population":35266},{"name":"Ambatolampy","ascii":"Ambatolampy","alternates":["Ambatolampi","Ambatulampi","ambatwlampy","an ba tu lan pi","Амбатолампи","Амбатулампи","امباتولامپی","安巴圖蘭皮"],"lat":-19.38333,"lng":47.41667,"population":34198},{"name":"Maromandia","ascii":"Maromandia","alternates":["marwmandya","ماروماندیا"],"lat":-14.21667,"lng":48.08333,"population":33596},{"name":"Didy","ascii":"Didy","alternates":["dydy","دیدی"],"lat":-18.11667,"lng":48.53333,"population":33039},{"name":"Ambodimanga II","ascii":"Ambodimanga II","alternates":["Ambodimanga","ambwdymananga 2","ambwdymananqa 2","امبودیمانانقا ۲","امبودیمانانگا ۲"],"lat":-17.26667,"lng":49.16667,"population":33000},{"name":"Bealanana","ascii":"Bealanana","alternates":["WBE"],"lat":-14.54329,"lng":48.74981,"population":32764},{"name":"Antsohimbondrona","ascii":"Antsohimbondrona","alternates":["Ancokhimbondrona","Port Saint-Louis","antswhymbwndrwna","Анцохимбондрона","آنتسوهیمبوندرونا"],"lat":-13.08333,"lng":48.85,"population":32080},{"name":"Itampolo","ascii":"Itampolo","alternates":["aytampwlw","yi tan pu lu","ایتامپولو","伊坦普盧"],"lat":-24.68333,"lng":43.95,"population":32000},{"name":"Fandriana","ascii":"Fandriana","alternates":["Ifandriana","fan de li ya na","fandryana","فاندریانا","凡德里亞納"],"lat":-20.23333,"lng":47.38333,"population":30958},{"name":"Mampikony","ascii":"Mampikony","alternates":["Mampikomy","WMP"],"lat":-16.092,"lng":47.647,"population":30282},{"name":"Arivonimamo","ascii":"Arivonimamo","alternates":["Arivonimamy","Arivunimamu","a li wu ni ma mu","arivuonimamo","arywwnymamw","Аривонимамо","Аривунимаму","آریوونیمامو","アリヴォニマモ","阿里武尼馬穆"],"lat":-19.01667,"lng":47.18333,"population":29997},{"name":"Tsiombe","ascii":"Tsiombe","alternates":["Tsihombe"],"lat":-25.3,"lng":45.48333,"population":29825},{"name":"Ankazobe","ascii":"Ankazobe","alternates":[],"lat":-18.31667,"lng":47.11667,"population":28430},{"name":"Ambodifotatra","ascii":"Ambodifotatra","alternates":["Ambodifototra"],"lat":-16.98333,"lng":49.85,"population":28406},{"name":"Sahavato","ascii":"Sahavato","alternates":["sahawatw","ساهاواتو","سہاواتو"],"lat":-20.6,"lng":48.33333,"population":28000},{"name":"Maevatanana","ascii":"Maevatanana","alternates":["Maevatana","Maevetanana","Mavatanana","Mevatanana","ma'evatana","ma'ibhatana","maebatanana","mayfatana","mayfatanana","maywatana","maʿivatanana","mywtana"],"lat":-16.95,"lng":46.83333,"population":27459},{"name":"Betioky","ascii":"Betioky","alternates":["BKU"],"lat":-23.72065,"lng":44.38069,"population":27125},{"name":"Miandrarivo","ascii":"Miandrarivo","alternates":["myandraryww","Миандрариво","میاندراریوو"],"lat":-19.43333,"lng":46.75,"population":27000},{"name":"Vohipaho","ascii":"Vohipaho","alternates":["Vohipaha","Vokhipakho","wwhypahw","Вохипахо","ووهیپاهو"],"lat":-23.55,"lng":47.5,"population":27000},{"name":"Mananjary","ascii":"Mananjary","alternates":["MNJ"],"lat":-21.23034,"lng":48.34173,"population":26712},{"name":"Tsaratanana","ascii":"Tsaratanana","alternates":["Caratanana","TTS","cha la ta na na","tsaratanana","tsuaratanana","Царатанана","تساراتانانا","ツァラタナナ","察拉塔納納","察拉塔纳纳"],"lat":-16.79706,"lng":47.65165,"population":26446},{"name":"Marolambo","ascii":"Marolambo","alternates":[],"lat":-20.05,"lng":48.11667,"population":26160},{"name":"Ankazoabo","ascii":"Ankazoabo","alternates":["Ankazoabe","Ankazoabo Sud","WAK"],"lat":-22.28333,"lng":44.51667,"population":25961},{"name":"Anjozorobe","ascii":"Anjozorobe","alternates":[],"lat":-18.4,"lng":47.86667,"population":25541},{"name":"Vohibinany","ascii":"Vohibinany","alternates":["Ampasimanolotra","Brickaville"],"lat":-17.35,"lng":49.03333,"population":25311},{"name":"Ambohidratrimo","ascii":"Ambohidratrimo","alternates":["Ambohidratimo"],"lat":-18.818,"lng":47.43382,"population":25163},{"name":"Ampahana","ascii":"Ampahana","alternates":["Ampaha","Ampakhana","ampahana","Ампахана","امپاهانا"],"lat":-14.75,"lng":50.21667,"population":25000},{"name":"Morombe","ascii":"Morombe","alternates":["MXM","mu long bei","murunbe","mwrwmbh","mwrwmby","מורומבה","مورومبه","مورومبي","ムルンベ","穆龍貝","穆龙贝"],"lat":-21.74499,"lng":43.36055,"population":23961},{"name":"Boriziny","ascii":"Boriziny","alternates":["Burizini","Port-Berge","Port-Bergé","bwryzyny","Буризини","بوریزینی","ポート・ベルジェ"],"lat":-15.55,"lng":47.66667,"population":23906},{"name":"Belo sur Tsiribihina","ascii":"Belo sur Tsiribihina","alternates":["BMD","Belo","Belo - Tsiribihina","Belo Tsiribihina","Belon'i Tsiribihina"],"lat":-19.69787,"lng":44.54587,"population":23900},{"name":"Maintirano","ascii":"Maintirano","alternates":["MXT","Majntirano","maintirano","mayinitirano","me'intirano","myntyranw","myں ٹranw","Майнтирано","مينتيرانو","مینتيرانو","مینتیرانو","میں ٹرانو"],"lat":-18.06354,"lng":44.02951,"population":23609},{"name":"Manjakandriana","ascii":"Manjakandriana","alternates":["man zha kan de li ya na","manjakndryana","مانجاکندریانا","曼扎坎德里亞納"],"lat":-18.91667,"lng":47.8,"population":23498},{"name":"Iharan̈a","ascii":"Iharana","alternates":["VOH","Vohemar","Vohimarina"],"lat":-13.35,"lng":50.0,"population":23349},{"name":"Beloha","ascii":"Beloha","alternates":[],"lat":-25.16667,"lng":45.05,"population":23021},{"name":"Ivohibe","ascii":"Ivohibe","alternates":[],"lat":-22.48333,"lng":46.88333,"population":22290},{"name":"Jafaro","ascii":"Jafaro","alternates":["جعفرو"],"lat":-24.91667,"lng":45.51667,"population":22000},{"name":"Sakaraha","ascii":"Sakaraha","alternates":["Sakaray"],"lat":-22.9,"lng":44.53333,"population":21826},{"name":"Miandrivazo","ascii":"Miandrivazo","alternates":["ZVA"],"lat":-19.52905,"lng":45.45559,"population":21627},{"name":"Ampasimanolotra","ascii":"Ampasimanolotra","alternates":["Brickaville","Brikavil'","Vohibinany","brykawyl","vuhibinani","wu xi ba na ni","Брикавиль","بریکاویل","ヴヒビナニ","武希巴納尼"],"lat":-18.81667,"lng":49.06667,"population":21000},{"name":"Sitampiky","ascii":"Sitampiky","alternates":["Sitampiki","Sitampikj","sytmpyky","Ситампикй","سیتمپیکی"],"lat":-16.66667,"lng":46.1,"population":21000},{"name":"Soanindrariny","ascii":"Soanindrariny","alternates":["Suanindzharini","Суанинджарини","سوانین‌درارینی"],"lat":-19.9,"lng":47.23333,"population":21000},{"name":"Bekily","ascii":"Bekily","alternates":["Morafeno Bekily","OVA"],"lat":-24.21667,"lng":45.31667,"population":20915},{"name":"Vondrozo","ascii":"Vondrozo","alternates":[],"lat":-22.81667,"lng":47.28333,"population":19949},{"name":"Fenoarivo Be","ascii":"Fenoarivo Be","alternates":["Fenoarivo","Fenoarivo Afovoany"],"lat":-18.43333,"lng":46.56667,"population":19605},{"name":"Beroroha","ascii":"Beroroha","alternates":["Beroroho","Beroroka","WBO"],"lat":-21.66667,"lng":45.16667,"population":18632},{"name":"Befandriana","ascii":"Befandriana","alternates":["Befandriana Avaratra","Befandriana Nord","WBD"],"lat":-15.2567,"lng":48.54249,"population":18596},{"name":"Betroka","ascii":"Betroka","alternates":[],"lat":-23.26667,"lng":46.08333,"population":18350},{"name":"Amboanjo","ascii":"Amboanjo","alternates":["ambwanjw","امبوانجو"],"lat":-22.0,"lng":47.85,"population":17000},{"name":"Ambohitrolomahitsy","ascii":"Ambohitrolomahitsy","alternates":["Ambokhitrolomakhicj","ambrwhytralwmahytsy","an bu xi te lu lu ma xi qi","Амбохитроломахицй","امبروهیترالوماهیتسی","安布希特鲁卢马希齐"],"lat":-18.7,"lng":47.68333,"population":17000},{"name":"Sadabe","ascii":"Sadabe","alternates":["sdabh","Садабе","سدبے","صدابه"],"lat":-18.63333,"lng":47.7,"population":17000},{"name":"Vatomandry","ascii":"Vatomandry","alternates":["VAT"],"lat":-19.33018,"lng":48.97791,"population":16771},{"name":"Ifanadiana","ascii":"Ifanadiana","alternates":["ayfanadyana","yi fa na di ya na","Ифанадиана","ایفانادیانا","伊法納迪亞納","伊法纳迪亚纳"],"lat":-21.3,"lng":47.63333,"population":16607},{"name":"Ambarakaraka","ascii":"Ambarakaraka","alternates":["ambarakaraka","امباراکاراکا"],"lat":-13.5,"lng":48.86667,"population":16114},{"name":"Alarobia","ascii":"Alarobia","alternates":["Alarobi","alarwbya","Аларобиа","الاروبیا"],"lat":-18.96667,"lng":47.73333,"population":16000},{"name":"Ankazondandy","ascii":"Ankazondandy","alternates":[],"lat":-18.7,"lng":47.78333,"population":16000},{"name":"Vohipeno","ascii":"Vohipeno","alternates":["Vohipeao","wu xi pei nu","wwhypnw","ووهیپنو","武希佩努"],"lat":-22.35,"lng":47.83333,"population":15622},{"name":"Ikalamavony","ascii":"Ikalamavony","alternates":[],"lat":-21.15,"lng":46.58333,"population":15601},{"name":"Soalala","ascii":"Soalala","alternates":["DWB","su a la la","suarara","swlala","سولالا","スアララ","苏阿拉拉","蘇阿拉拉"],"lat":-16.1,"lng":45.31667,"population":15174},{"name":"Imerimandroso","ascii":"Imerimandroso","alternates":["Imerimandrusu","aymrymandrwsw","Имеримандрусу","ایمریماندروسو"],"lat":-17.43333,"lng":48.58333,"population":15095},{"name":"Ifatsy","ascii":"Ifatsy","alternates":["Efasy","Efatsy","Lfatsy"],"lat":-22.4,"lng":47.75,"population":15000},{"name":"Kopoky","ascii":"Kopoky","alternates":[],"lat":-25.2,"lng":45.2,"population":15000},{"name":"Miarinarivo","ascii":"Miarinarivo","alternates":["mi'arinarivo","miarinarivuo","miyarinaribho","miʿerinarivo","myarynaryfw","myarynryw","myarynyryw","Миаринаривo","مياريناريفو","میارینریو","میارینیریو","मिअरिनारिवो"],"lat":-18.95873,"lng":46.90553,"population":13883},{"name":"Antsirabe Afovoany","ascii":"Antsirabe Afovoany","alternates":["Ansirabe","Antsirabe","antsyrabh afwwany","آنتسیرابه آفووآنی"],"lat":-15.95,"lng":48.96667,"population":13000},{"name":"Tranovaho","ascii":"Tranovaho","alternates":["Tranovakho","Tranovako","Tranovoa","tranwaw","Трановахо","ترانواو"],"lat":-25.3,"lng":44.96667,"population":13000},{"name":"Antanandava","ascii":"Antanandava","alternates":[],"lat":-19.08333,"lng":47.95,"population":12755},{"name":"Ambohimahasoa","ascii":"Ambohimahasoa","alternates":[],"lat":-21.11667,"lng":47.21667,"population":12291},{"name":"Besalampy","ascii":"Besalampy","alternates":["BPY","bei sa lan pi","besaranpi","bsalampy","bysalamby","بسالامپی","بيسالامبي","ベサランピ","貝薩蘭皮","贝萨兰皮"],"lat":-16.75,"lng":44.48333,"population":12000},{"name":"Antakotako","ascii":"Antakotako","alternates":["Antakutaku","antakwtakw","Антакутаку","آنتاکوتاکو"],"lat":-15.31667,"lng":49.8,"population":11000},{"name":"Marovantaza","ascii":"Marovantaza","alternates":["marwfantaza","marwwantaza","ماروفانتازا","مارووانتازا"],"lat":-15.38333,"lng":47.66667,"population":10504},{"name":"Andovoranto","ascii":"Andovoranto","alternates":["Andevorante","Andevoranto"],"lat":-18.95443,"lng":49.1094,"population":10429},{"name":"Analalava","ascii":"Analalava","alternates":["HVA"],"lat":-14.63333,"lng":47.75,"population":10349},{"name":"Ambodivoara","ascii":"Ambodivoara","alternates":[],"lat":-14.33333,"lng":49.98333,"population":10000},{"name":"Mahabe","ascii":"Mahabe","alternates":["Mahabo"],"lat":-17.08333,"lng":45.33333,"population":10000},{"name":"Mantasoa","ascii":"Mantasoa","alternates":["mang ta suo a","mantaswa","مانتاسوآ","芒塔索阿"],"lat":-19.01667,"lng":47.83333,"population":10000},{"name":"Miadanandriana","ascii":"Miadanandriana","alternates":["myadanandryana","Миаданандриана","میاداناندریانا"],"lat":-19.03333,"lng":47.78333,"population":10000},{"name":"Sahatavy","ascii":"Sahatavy","alternates":[],"lat":-17.45,"lng":49.0,"population":10000},{"name":"Fandrandava","ascii":"Fandrandava","alternates":["Alakamisy Fandrandava","Alakamisy-Fandandrave","fandrandawa","Фандрандава","فاندرانداوا"],"lat":-21.51667,"lng":47.25,"population":9000},{"name":"Marovatolena","ascii":"Marovatolena","alternates":["marwwatwlna","ماروواتولنا"],"lat":-15.18333,"lng":47.65,"population":8769},{"name":"Ambohitrandriamanitra","ascii":"Ambohitrandriamanitra","alternates":["Ambohiandriamanitra","Ambohitrandrimanitra","Ambokhitrandriamanitra","ambwhytrandryamanytra","Амбохитрандриаманитра","امبوهیتراندریامانیترا"],"lat":-19.08333,"lng":47.78333,"population":8000},{"name":"Bemaitso","ascii":"Bemaitso","alternates":["Bemaico","bmaytsw","Бемаицо","بمایتسو"],"lat":-17.06667,"lng":48.5,"population":8000},{"name":"Ivato","ascii":"Ivato","alternates":[],"lat":-22.41667,"lng":47.26667,"population":8000},{"name":"Merikanjaka","ascii":"Merikanjaka","alternates":["mrykanjaka","مریکانجاکا"],"lat":-19.13333,"lng":47.85,"population":8000},{"name":"Mahavelona","ascii":"Mahavelona","alternates":["Foulpointe","Fulpuant","Фулпуант"],"lat":-17.68475,"lng":49.50869,"population":7987},{"name":"Sadjoavato","ascii":"Sadjoavato","alternates":["Sadjovato","sadjwawatw","sdjwawatw","سادجوآواتو","سدجواواتو"],"lat":-12.61667,"lng":49.35,"population":7600},{"name":"Behompy","ascii":"Behompy","alternates":["Bekhompj","bhwmpy","Бехомпй","بهومپی"],"lat":-23.25,"lng":43.85,"population":7000},{"name":"Beteza","ascii":"Beteza","alternates":["btza","Бетеза","بتزا"],"lat":-24.45,"lng":45.11667,"population":7000},{"name":"Manato","ascii":"Manato","alternates":["manatw","ماناتو"],"lat":-22.4,"lng":47.48333,"population":7000},{"name":"Sambaina","ascii":"Sambaina","alternates":["sambayna","Самбаина","سامباینا"],"lat":-18.9,"lng":47.78333,"population":7000},{"name":"Ambohitseheno","ascii":"Ambohitseheno","alternates":["Ambokhicekheno","ambwhytshnw","Амбохицехено","امبوهیتسهنو"],"lat":-18.78333,"lng":47.8,"population":6000},{"name":"Anjepy","ascii":"Anjepy","alternates":["anjpy","آنجپی"],"lat":-18.85,"lng":47.71667,"population":6000},{"name":"Ranohira","ascii":"Ranohira","alternates":[],"lat":-22.48333,"lng":45.4,"population":6000},{"name":"Vohimanitra","ascii":"Vohimanitra","alternates":["Vokhimanitra","wwhymanytra","Вохиманитра","ووهیمانیترا"],"lat":-21.7,"lng":47.7,"population":6000},{"name":"Ambatolaona","ascii":"Ambatolaona","alternates":["ambatwlaywna","Амбатолаона","امباتولائونا"],"lat":-18.93333,"lng":47.9,"population":5000},{"name":"Nandihizana","ascii":"Nandihizana","alternates":["Carion"],"lat":-18.9,"lng":47.71667,"population":5000},{"name":"Ambalasoa","ascii":"Ambalasoa","alternates":["ambalaswa","Амбаласоа","امبالاسوا"],"lat":-23.11667,"lng":46.0,"population":4000},{"name":"Anandravy","ascii":"Anandravy","alternates":["Anadray","Anandravj","anandrawy","Анандравй","اناندراوی"],"lat":-22.9,"lng":47.36667,"population":4000},{"name":"Antanimena","ascii":"Antanimena","alternates":["antanymna","آنتانیمنا"],"lat":-23.55,"lng":44.1,"population":4000},{"name":"Savana","ascii":"Savana","alternates":["safana","sawana","Савана","سافانا","ساوانا"],"lat":-22.38333,"lng":47.9,"population":4000},{"name":"Anakao","ascii":"Anakao","alternates":["a na kao","anakayw","Анакао","اناکائو","阿納考"],"lat":-23.66667,"lng":43.65,"population":3000},{"name":"Mahalina","ascii":"Mahalina","alternates":["Makhalina","mahalyna","Махалина","ماهالینا"],"lat":-12.53333,"lng":48.81667,"population":2217},{"name":"Amboasary","ascii":"Amboasary","alternates":[],"lat":-24.33333,"lng":45.95,"population":0},{"name":"Andramasina","ascii":"Andramasina","alternates":[],"lat":-19.18785,"lng":47.59016,"population":0},{"name":"Antsampanimahazo","ascii":"Antsampanimahazo","alternates":[],"lat":-19.63988,"lng":47.1565,"population":0},{"name":"Mandritsara","ascii":"Mandritsara","alternates":["WMA"],"lat":-15.85744,"lng":48.82824,"population":0},{"name":"Manja","ascii":"Manja","alternates":["Fort Manza","MJA"],"lat":-21.43333,"lng":44.33333,"population":0}]