[{"name":"Port Louis","ascii":"Port Louis","alternates":["Bort Lois","Po-Loui","Por Loui","Por-Loui","Port Lois","Port Louis Town","Port Lui","Port Luis","Port Luisas","Port Luiz","Port-Louis","Port-Lui"],"lat":-20.16194,"lng":57.49889,"population":155226},{"name":"Vacoas","ascii":"Vacoas","alternates":["Phoenix","Vacoa","Vacoas-Phoenix"],"lat":-20.29806,"lng":57.47833,"population":115289},{"name":"Beau Bassin-Rose Hill","ascii":"Beau Bassin-Rose Hill","alternates":["Beau Bassin","Bo Bassen-Roz Khill","Bo Bassin-Roze Kholmi","Bo Bassin-Roze Təpə","Villes sœurs","bo basina-roza hila","bo basini-roዝ hiል","bo besina-roja hila","bo besina-roza hila","bobassan-rozuhiru","bw basn-rwz ہl","bw basyn - rwz hyl"],"lat":-20.23325,"lng":57.46609,"population":111355},{"name":"Curepipe","ascii":"Curepipe","alternates":["K'jurpajp","Kiurpipas","Kjurpajp","Kjurpip","ju er pi pu","kulepipe","kur pip","kwrybyb","kyurupippu","Кьюрпайп","Кюрпип","Кјурпајп"],"lat":-20.31628,"lng":57.52594,"population":78618},{"name":"Quatre Bornes","ascii":"Quatre Bornes","alternates":[],"lat":-20.26381,"lng":57.4791,"population":77308},{"name":"Triolet","ascii":"Triolet","alternates":["Триолет"],"lat":-20.0576,"lng":57.55025,"population":24361},{"name":"Goodlands","ascii":"Goodlands","alternates":["Godlands","gu de lan ci","guddoranzu","gwdlnds","Годландс","גודלנדס","グッドランズ","古德兰兹"],"lat":-20.03841,"lng":57.65055,"population":21063},{"name":"Bel Air Rivière Sèche","ascii":"Bel Air Riviere Seche","alternates":["Bel Air","bei lai er","בל אייר","ベル・エア・リビエール・セシェ","贝莱尔"],"lat":-20.25777,"lng":57.74976,"population":18036},{"name":"Bambous","ascii":"Bambous","alternates":["baimbosa","bambws","ban bu si","banbusu","bang bu","Бамбоус","بامبوس","बैम्बॉस","バンブース","班布斯","邦布"],"lat":-20.25667,"lng":57.40611,"population":17818},{"name":"Centre de Flacq","ascii":"Centre de Flacq","alternates":["Centr de Flak","Centre of Flacq","Flacq","Sent-de Flack","Sent-dе Flack","Sentr de Flacq","Sentр de Flacq","mrkz dy flak","saintara de phlaika","santoru・do・furakku","seniteri de ፍlaki","sentara de phlaika"],"lat":-20.18972,"lng":57.71444,"population":17710},{"name":"Mahébourg","ascii":"Mahebourg","alternates":["Majeburas","Makheborg","ma ai bao","ma ke bang","ma xi bu","maeburu","Махеборг","マエブール","馬可邦","馬喜埔","马埃堡"],"lat":-20.40806,"lng":57.7,"population":17042},{"name":"Saint Pierre","ascii":"Saint Pierre","alternates":["Saint Pierre Village"],"lat":-20.2215,"lng":57.53431,"population":16704},{"name":"Le Hochet","ascii":"Le Hochet","alternates":[],"lat":-20.13859,"lng":57.53013,"population":15662},{"name":"Baie du Tombeau","ascii":"Baie du Tombeau","alternates":[],"lat":-20.11944,"lng":57.49139,"population":15301},{"name":"Trou aux Biches","ascii":"Trou aux Biches","alternates":[],"lat":-20.03301,"lng":57.55033,"population":14706},{"name":"Rose Belle","ascii":"Rose Belle","alternates":["Roz Bell'","Roz-Bel'","Roze Bell","roja bela","roza bela","rozuberu","roዝ beል","rwz bl","rwz byl","Роз Белль","Роз-Бель","روز بل"],"lat":-20.40028,"lng":57.59667,"population":12619},{"name":"Chemin Grenier","ascii":"Chemin Grenier","alternates":["Shmen-Gren'e","chemin Grenier","she man ge lei nie","Шмен-Гренье","舍曼格勒涅"],"lat":-20.48722,"lng":57.46556,"population":12457},{"name":"Grand Baie","ascii":"Grand Baie","alternates":["Grand-Baie","Grand-Be","Grande Baie","ge lang de bei","ghrand bay","Гранд-Бе","غراند باي","格朗德贝"],"lat":-20.01816,"lng":57.58015,"population":12173},{"name":"Lallmatie","ascii":"Lallmatie","alternates":[],"lat":-20.01839,"lng":57.58017,"population":11910},{"name":"Terre Rouge","ascii":"Terre Rouge","alternates":[],"lat":-20.1283,"lng":57.53116,"population":11210},{"name":"New Grove","ascii":"New Grove","alternates":["New Grove Station"],"lat":-20.40861,"lng":57.61361,"population":11023},{"name":"Rivière du Rempart","ascii":"Riviere du Rempart","alternates":["Riv'er-dju-Rempar","ribhiyara du remaparta","ribierudeyuranparu","rivi'ara du raimaparata","rivi'ere du remaparta","riviyeri du reምፓri","ryfyyr dw rmbar","rywyr dw rmpar","rywyyr ڈw rymparٹ","Ривьер-дю-Ремпар","ريفيير دو رمبار","ریویئر ڈو ریمپارٹ"],"lat":-20.10306,"lng":57.68472,"population":10825},{"name":"Plaine Magnien","ascii":"Plaine Magnien","alternates":["Plaines Magnien"],"lat":-20.42967,"lng":57.66968,"population":10778},{"name":"Rouge Terre","ascii":"Rouge Terre","alternates":["Terre Rouge"],"lat":-20.04333,"lng":57.56833,"population":10760},{"name":"Lalmatie","ascii":"Lalmatie","alternates":[],"lat":-20.18972,"lng":57.66111,"population":10641},{"name":"Pailles","ascii":"Pailles","alternates":["Pailles Village","mauvilac"],"lat":-20.19271,"lng":57.48826,"population":10622},{"name":"Surinam","ascii":"Surinam","alternates":["shurinamu","srynam","su li nan cun","سرینام","シュリナム","苏里南村"],"lat":-20.50972,"lng":57.50528,"population":10621},{"name":"Rivière des Anguilles","ascii":"Riviere des Anguilles","alternates":["River des Anguilles","River-dez-Angij","Ривер-дез-Ангий"],"lat":-20.493,"lng":57.563,"population":9927},{"name":"Pamplemousses","ascii":"Pamplemousses","alternates":["Pamplemousses Village","Pamplemuss","bamblmws","paimpalamausesa","paimpalimusasa","pam plymwsz","pampalama'usesa","pamplmws","panpurumusu","Памплемусс","بامبلموس","پام پلیموسز"],"lat":-20.10389,"lng":57.57028,"population":9682},{"name":"Montagne Blanche","ascii":"Montagne Blanche","alternates":["Blanche Mont","Mont Blanche"],"lat":-20.28538,"lng":57.65865,"population":9440},{"name":"Petit Raffray","ascii":"Petit Raffray","alternates":[],"lat":-20.02022,"lng":57.62296,"population":9410},{"name":"Moka","ascii":"Moka","alternates":["Moka Village"],"lat":-20.21904,"lng":57.51083,"population":9364},{"name":"Richelieu","ascii":"Richelieu","alternates":[],"lat":-20.19324,"lng":57.45952,"population":9178},{"name":"Poste de Flacq","ascii":"Poste de Flacq","alternates":["Post of Flacq"],"lat":-20.16306,"lng":57.73056,"population":8659},{"name":"Port Mathurin","ascii":"Port Mathurin","alternates":["Por Matjuren","bwrt mathwryn","porata mathurina","porta mathurina","porta myathurina","poruto・mateyuran","pwrt matwryn","pwrٹ mytھwrn","Пор Матюрен","بورت ماثورين","پورت ماتورین","پورٹ میتھورن"],"lat":-19.68333,"lng":63.41667,"population":8350},{"name":"Plaine des Papayes","ascii":"Plaine des Papayes","alternates":["Plaines des Papayes"],"lat":-20.065,"lng":57.5725,"population":7925},{"name":"L’Escalier","ascii":"L'Escalier","alternates":["Escalier"],"lat":-20.47,"lng":57.61222,"population":7899},{"name":"Grand Bois","ascii":"Grand Bois","alternates":["Gran-Bua","Гран-Буа"],"lat":-20.41889,"lng":57.54417,"population":7804},{"name":"Long Mountain","ascii":"Long Mountain","alternates":["Mont Longue"],"lat":-20.151,"lng":57.573,"population":7775},{"name":"Grand Gaube","ascii":"Grand Gaube","alternates":["Grande Gaube"],"lat":-20.00639,"lng":57.66083,"population":7706},{"name":"Brisée Verdière","ascii":"Brisee Verdiere","alternates":[],"lat":-20.16389,"lng":57.64667,"population":7696},{"name":"Belle Vue Harel","ascii":"Belle Vue Harel","alternates":["Belle-Vue"],"lat":-20.06583,"lng":57.59417,"population":7607},{"name":"Belle Vue Maurel","ascii":"Belle Vue Maurel","alternates":["Belle Vue"],"lat":-20.12028,"lng":57.66361,"population":7607},{"name":"Pointe aux Piments","ascii":"Pointe aux Piments","alternates":[],"lat":-20.06494,"lng":57.52347,"population":7556},{"name":"Dagotière","ascii":"Dagotiere","alternates":["La Dagotiere","La Dagotière"],"lat":-20.24476,"lng":57.56188,"population":7468},{"name":"Nouvelle France","ascii":"Nouvelle France","alternates":[],"lat":-20.37056,"lng":57.56111,"population":7238},{"name":"Beau Vallon","ascii":"Beau Vallon","alternates":["Beau-Vallon"],"lat":-20.42325,"lng":57.70351,"population":7016},{"name":"Bon Accueil","ascii":"Bon Accueil","alternates":[],"lat":-20.175,"lng":57.672,"population":6553},{"name":"Quartier Militaire","ascii":"Quartier Militaire","alternates":["Kvartier Hərbi","Kvartier Militaire","Kvat'e Militer","karutie・miriteru","koyartiyara militeyara","ku'arati'ara milite'ara","kvartiyara militeyara","kwaritiyeri militeri","kwartyh nzamy","kwartyr mylytyr","kwarٹyyr mlٹry","Кватье Милитер"],"lat":-20.2479,"lng":57.59737,"population":6424},{"name":"Calodyne","ascii":"Calodyne","alternates":[],"lat":-20.00215,"lng":57.64249,"population":6252},{"name":"Laventure","ascii":"Laventure","alternates":[],"lat":-20.14583,"lng":57.67667,"population":6171},{"name":"Morcellement Saint André","ascii":"Morcellement Saint Andre","alternates":["Morcellemont Saint Andre","Morcellemont Saint André","Saint-Andre","Saint-André"],"lat":-20.07199,"lng":57.56833,"population":6150},{"name":"Anse La Raye","ascii":"Anse La Raye","alternates":[],"lat":-19.99057,"lng":57.63202,"population":6060},{"name":"Ecroignard","ascii":"Ecroignard","alternates":[],"lat":-20.22611,"lng":57.73611,"population":5952},{"name":"Piton","ascii":"Piton","alternates":["Mont Piton"],"lat":-20.09028,"lng":57.63028,"population":5909},{"name":"Fond du Sac","ascii":"Fond du Sac","alternates":["feng di sa ke","丰迪萨克"],"lat":-20.04732,"lng":57.584,"population":5796},{"name":"Sebastopol","ascii":"Sebastopol","alternates":[],"lat":-20.2907,"lng":57.68779,"population":5745},{"name":"Roches Noire","ascii":"Roches Noire","alternates":["Roche Noire","Roche Noires","Roches Noires"],"lat":-20.11111,"lng":57.71222,"population":5733},{"name":"Quatre Cocos","ascii":"Quatre Cocos","alternates":[],"lat":-20.20151,"lng":57.77448,"population":5724},{"name":"Petite Rivière","ascii":"Petite Riviere","alternates":["Ptit-Riv'er","Птит-Ривьер"],"lat":-20.19551,"lng":57.44592,"population":5331},{"name":"Camp Diable","ascii":"Camp Diable","alternates":[],"lat":-20.46278,"lng":57.57889,"population":5082},{"name":"Péreybère","ascii":"Pereybere","alternates":["Pereybèré"],"lat":-19.99883,"lng":57.5885,"population":5000},{"name":"Chamouny","ascii":"Chamouny","alternates":[],"lat":-20.48222,"lng":57.46611,"population":4913},{"name":"Cap Malheureux","ascii":"Cap Malheureux","alternates":["ma lei lei jiao","馬勒勒角","马勒勒角"],"lat":-19.98417,"lng":57.61417,"population":4803},{"name":"Calebasses","ascii":"Calebasses","alternates":[],"lat":-20.11167,"lng":57.55389,"population":4648},{"name":"Midlands","ascii":"Midlands","alternates":[],"lat":-20.338,"lng":57.567,"population":4546},{"name":"Belle Vue Pilot","ascii":"Belle Vue Pilot","alternates":["Belle Vue"],"lat":-20.05486,"lng":57.58365,"population":4518},{"name":"Souillac","ascii":"Souillac","alternates":["Port Souillac","Soullac","Suillak","Sujak","Sujlak","Sujllak","su'ilaika","su'ilaka","suiyakku","suyilaki","swylak","Суйак"],"lat":-20.51667,"lng":57.51667,"population":4434},{"name":"Camp Ithier","ascii":"Camp Ithier","alternates":[],"lat":-20.21583,"lng":57.74556,"population":4401},{"name":"Tamarin","ascii":"Tamarin","alternates":["tamarin","tamarina","tamarini","tamaryn","tmaryn","Тамарин","تامارین","تمارين","تمارین","तमारिन","তামারিন","ਤਮਾਰਿਨ"],"lat":-20.32556,"lng":57.37056,"population":4371},{"name":"Plaines des Roches","ascii":"Plaines des Roches","alternates":[],"lat":-20.11167,"lng":57.69083,"population":4218},{"name":"Saint Hubert","ascii":"Saint Hubert","alternates":[],"lat":-20.36417,"lng":57.63833,"population":4170},{"name":"Olivia","ascii":"Olivia","alternates":["Oliva"],"lat":-20.28778,"lng":57.73097,"population":3980},{"name":"Notre Dame","ascii":"Notre Dame","alternates":["Notre Dame Station"],"lat":-20.14298,"lng":57.55969,"population":3959},{"name":"The Vale","ascii":"The Vale","alternates":["Lyman Estate"],"lat":-20.03018,"lng":57.60219,"population":3707},{"name":"Cottage","ascii":"Cottage","alternates":[],"lat":-20.05972,"lng":57.62917,"population":3646},{"name":"Quatre Soeurs","ascii":"Quatre Soeurs","alternates":["La Coterie","Quatre Soeurs Br."],"lat":-20.29917,"lng":57.77056,"population":3515},{"name":"Gros Cailloux","ascii":"Gros Cailloux","alternates":[],"lat":-20.20722,"lng":57.43,"population":3361},{"name":"Albion","ascii":"Albion","alternates":[],"lat":-20.20814,"lng":57.40766,"population":3254},{"name":"Roche Terre","ascii":"Roche Terre","alternates":[],"lat":-20.01861,"lng":57.64472,"population":3199},{"name":"Saint Julien","ascii":"Saint Julien","alternates":["Julien","Saint Julien Village"],"lat":-20.208,"lng":57.676,"population":3188},{"name":"Providence","ascii":"Providence","alternates":[],"lat":-20.24472,"lng":57.61222,"population":3126},{"name":"Crève Coeur","ascii":"Creve Coeur","alternates":[],"lat":-20.19346,"lng":57.56328,"population":3097},{"name":"Queen Victoria","ascii":"Queen Victoria","alternates":[],"lat":-20.22,"lng":57.7075,"population":3025},{"name":"Amaury","ascii":"Amaury","alternates":[],"lat":-20.13083,"lng":57.65917,"population":2912},{"name":"Dubreuil","ascii":"Dubreuil","alternates":[],"lat":-20.30132,"lng":57.59861,"population":2726},{"name":"Camp de Masque","ascii":"Camp de Masque","alternates":["Camp de Masque Station"],"lat":-20.236,"lng":57.676,"population":2721},{"name":"Cascavelle","ascii":"Cascavelle","alternates":[],"lat":-20.28694,"lng":57.40722,"population":2613},{"name":"Arsenal","ascii":"Arsenal","alternates":[],"lat":-20.10556,"lng":57.53528,"population":2599},{"name":"Baie aux Huîtres","ascii":"Baie aux Huitres","alternates":["Oyster Bay"],"lat":-19.69444,"lng":63.40833,"population":2500},{"name":"Grande Rivière Sud Est","ascii":"Grande Riviere Sud Est","alternates":["Grand River","Grand River South East","Grande Reviere Sud Est"],"lat":-20.28611,"lng":57.77583,"population":2472},{"name":"Bel Ombre","ascii":"Bel Ombre","alternates":["Bel'-Ombr","Belle Ombre","Бель-Омбр"],"lat":-20.50222,"lng":57.40611,"population":2417},{"name":"Poudre d’Or","ascii":"Poudre d'Or","alternates":["Poudre D'Or Village","Poudre D’Or Village"],"lat":-20.06,"lng":57.67667,"population":2373},{"name":"Grande Rivière Noire","ascii":"Grande Riviere Noire","alternates":["Black River","Grand Riviere Noire","Grand Rivière Noire","Riviere Noire","Rivière Noire"],"lat":-20.36028,"lng":57.36611,"population":2361},{"name":"Espérance Trébuchet","ascii":"Esperance Trebuchet","alternates":["Esperance","Espérance"],"lat":-20.06972,"lng":57.64194,"population":2323},{"name":"Camp Thorel","ascii":"Camp Thorel","alternates":["Camp Thoret"],"lat":-20.21472,"lng":57.61611,"population":2299},{"name":"Grand Sable","ascii":"Grand Sable","alternates":[],"lat":-20.31417,"lng":57.76444,"population":2208},{"name":"Verdun","ascii":"Verdun","alternates":["Verdun Station"],"lat":-20.23417,"lng":57.55476,"population":2208},{"name":"Rivière du Poste","ascii":"Riviere du Poste","alternates":["Riv'er-dju-Post","River du Poste Station","Riviere du Post","Riviere du Poste Station","Rivière du Post","Rivière du Poste Station","Ривьер-дю-Пост"],"lat":-20.42417,"lng":57.56694,"population":2170},{"name":"Mare La Chaux","ascii":"Mare La Chaux","alternates":[],"lat":-20.19806,"lng":57.74944,"population":2058},{"name":"Flic en Flac","ascii":"Flic en Flac","alternates":["Flic-en-Flacq"],"lat":-20.278,"lng":57.372,"population":2010},{"name":"Melrose","ascii":"Melrose","alternates":[],"lat":-20.26972,"lng":57.63194,"population":2002},{"name":"Bois des Amourettes","ascii":"Bois des Amourettes","alternates":[],"lat":-20.36306,"lng":57.73111,"population":1986},{"name":"Congomah","ascii":"Congomah","alternates":[],"lat":-20.14889,"lng":57.59083,"population":1956},{"name":"Clémencia","ascii":"Clemencia","alternates":[],"lat":-20.26389,"lng":57.70611,"population":1835},{"name":"Saint Aubin","ascii":"Saint Aubin","alternates":["Sent-Oben","Union Saint Aubin","Сент-Обен"],"lat":-20.496,"lng":57.55,"population":1659},{"name":"Cluny","ascii":"Cluny","alternates":[],"lat":-20.36694,"lng":57.60389,"population":1629},{"name":"Bambous Virieux","ascii":"Bambous Virieux","alternates":[],"lat":-20.34278,"lng":57.7575,"population":1540},{"name":"Petite Case Noyale","ascii":"Petite Case Noyale","alternates":[],"lat":-20.404,"lng":57.371,"population":1525},{"name":"Mapou","ascii":"Mapou","alternates":["ma pu","mapu","Мапоу","マプー","馬普","马普"],"lat":-20.07583,"lng":57.60139,"population":1288},{"name":"Ebene","ascii":"Ebene","alternates":["Ebene City","Ebene CyberCity"],"lat":-20.24494,"lng":57.49163,"population":1001},{"name":"Petit Bel Air","ascii":"Petit Bel Air","alternates":[],"lat":-20.39986,"lng":57.69513,"population":1000},{"name":"Chamarel","ascii":"Chamarel","alternates":["Shamarel'","sha ma lei lei","shamareru","Чамарел","Шамарель","シャマレル","沙马雷勒"],"lat":-20.4225,"lng":57.38389,"population":723},{"name":"Bananes","ascii":"Bananes","alternates":[],"lat":-20.34667,"lng":57.58861,"population":652},{"name":"Vingt Cinq","ascii":"Vingt Cinq","alternates":["Vehn' Sehnk","bhinta sinka","fynt synk","viniግti siniki","vinta sinka","vita sika","vuansanku","wnٹ snk","wynt synk","Вэнь Сэнк","فينت سينك","ونٹ سنک"],"lat":-10.38803,"lng":56.61795,"population":250},{"name":"Cargados Carajos","ascii":"Cargados Carajos","alternates":["Cargados Karakos","Kargados Karadzhos","Saint Brandon","karagadosa karajosa","kargadosa karajosa","kargadws karajws","kargaڈws karajws","karigadosi karahosi","karjadws karakhws","karugadosu・karajosu","Каргадос Караджос","كارجادوس كاراخوس"],"lat":-16.60329,"lng":59.65851,"population":63}]