[{"name":"Windhoek","ascii":"Windhoek","alternates":["Gouintchouk","Vindguk","Vindhuk","Vindhuka","Vindhukas","Vindhuko","Vindkhuk","Vinduque","Vindxuk","Vintchouk","WDH","Windhuk"],"lat":-22.55941,"lng":17.08323,"population":386219},{"name":"Rundu","ascii":"Rundu","alternates":["NDU","Runtu","long du","lundu","rndw","rudu","rundou","rundu","runidu","rwndu","rwndw","rwnډw"],"lat":-17.91796,"lng":19.77314,"population":75180},{"name":"Walvis Bay","ascii":"Walvis Bay","alternates":["Uolfish Bej","Uolfish-Bej","Uolvis-Behj","Valvis Bej","Volfis-Bej","Volvis Bejus","Volvis Bėjus","WVB","Walfisch-Bucht-Niederland","Walfischbucht","Walvisbaai","jing wan gang"],"lat":-22.9575,"lng":14.50528,"population":73598},{"name":"Swakopmund","ascii":"Swakopmund","alternates":["SWP","Svakopmund","Svakopmundas","savakopamunda","seubakopeumunteu","si wa ke pu meng de","siwakweፕmunidi","sokapamunda","suwakopumunto","svakopamunda","swakwbmwnd","swakwpmnd"],"lat":-22.67842,"lng":14.52663,"population":53009},{"name":"Oshakati","ascii":"Oshakati","alternates":["OHI","Okatana","Osakatis","Ošakatis","ao sha ka di","awshakaty","osakati","oshakati","ʿoshakati","Ошакати","Ошакаті","أوشاكاتي"],"lat":-17.78833,"lng":15.70436,"population":43309},{"name":"Rehoboth","ascii":"Rehoboth","alternates":["Rehkhobat","Rekhobot","Rikhobot","li huo bo si","rehobosu","rhwbwt","ryhwbwth","Рехобот","Рихобот","Рэхобат","רהובות","ريهوبوث"],"lat":-23.317,"lng":17.09,"population":34185},{"name":"Katima Mulilo","ascii":"Katima Mulilo","alternates":["Katima Molilo","Katima Mulilas","Katima-Mulilo","MPA","ka di ma mu li luo","katima mulilo","katimamullillo","katyma mwlilw","katyma mwlylw","Катима Мулило","Катима-Мулило","Катіма-Муліло"],"lat":-17.50467,"lng":24.27574,"population":33615},{"name":"Otjiwarongo","ascii":"Otjiwarongo","alternates":["OTJ","Ochivarongo","Ocivarongas","Ot'ivarongo","Otiwarongo","Otzhivarongo","Očivarongas","ao qi wa long ge","awtjywarwnghw","awtjywarwngw","awtjywarwnګw","ochiwarongo"],"lat":-20.46369,"lng":16.64772,"population":33481},{"name":"Ondangwa","ascii":"Ondangwa","alternates":["OND","Ondangua","Ondangva","Ondonga","weng dan gua","Ондангва","翁丹瓜"],"lat":-17.90824,"lng":15.98037,"population":27049},{"name":"Okahandja","ascii":"Okahandja","alternates":["Okahanja","Okakhandzha","ao ka han gu","okahanja","Окаханджа","オカハンジャ","奧卡漢賈"],"lat":-21.98141,"lng":16.9029,"population":26832},{"name":"Grootfontein","ascii":"Grootfontein","alternates":["GFY","Groutfontein","Grutfontejn","Khrutfontejn","geuluteupontein","gurutofontein","he lu te fang dan","Грутфонтейн","Хрутфонтейн","グルートフォンテイン","赫魯特方丹","그루트폰테인"],"lat":-19.57328,"lng":18.1003,"population":24099},{"name":"Ongwediva","ascii":"Ongwediva","alternates":["Onguedira","Onguediva","Onguehdiva","weng gui di wa","Онгуедіва","Онгуэдива","Օնգուեդիվա","אונגוודיבה","翁圭迪瓦"],"lat":-17.77198,"lng":15.76564,"population":24012},{"name":"Keetmanshoop","ascii":"Keetmanshoop","alternates":["KMP","Ketmanshopas","Ketmanskhop","Kitmanskhup","ji te man si hu pu","keiteumanseuhopeu","ketomansufupu","kitamanasupa","kitamyanasupa","kitimanishoፕ","kytmanshwb","kytmanshwp"],"lat":-26.57654,"lng":18.13359,"population":23049},{"name":"Helao Nafidi","ascii":"Helao Nafidi","alternates":[],"lat":-17.39321,"lng":15.89107,"population":22963},{"name":"Tsumeb","ascii":"Tsumeb","alternates":["Cumeb","Cumebo","TSB","Tsoumeb","chu mei bu","chumebeu","tsumebu","Τσουμέμπ","Цумеб","צואמב","ツメブ","楚梅布"],"lat":-19.24842,"lng":17.71345,"population":22845},{"name":"Gobabis","ascii":"Gobabis","alternates":["GOG","ge ba bi si","ghwbabys","gobabisa","gobabisi","gobabisu","gwabys","gwbabs","gwbabys","Гобабис","Гобабіс","غوبابيس"],"lat":-22.45338,"lng":18.97159,"population":22639},{"name":"Katutura","ascii":"Katutura","alternates":[],"lat":-22.52306,"lng":17.06028,"population":21243},{"name":"Ndiyona","ascii":"Ndiyona","alternates":[],"lat":-18.03892,"lng":20.70058,"population":20633},{"name":"Lüderitz","ascii":"Luderitz","alternates":["LUD","Lideric","Ljudehryc","Ljuderic","Lounteritz","Luderitzort","Luederitz","lu de li ci","luderitsi","lwdrytz","lwidelicheu","lydryz"],"lat":-26.64807,"lng":15.15383,"population":15137},{"name":"Mariental","ascii":"Mariental","alternates":["Mar'ental'","Mariental'","Marientalis","ma lin ta er","maliental","mari'atala","mari'entala","marientaru","mariyenitaል","mariyentala","maryantal","maryyntal"],"lat":-24.62705,"lng":17.96471,"population":14789},{"name":"Khorixas","ascii":"Khorixas","alternates":["Khoriksas","Kkhorikhas","Wallwitch","Wellwitsch","Welwitsch","Welwitschia","huo li ke sa si","Кхорихас","Хориксас","霍里克薩斯"],"lat":-20.37711,"lng":14.96203,"population":12021},{"name":"Omaruru","ascii":"Omaruru","alternates":[],"lat":-21.42403,"lng":15.94611,"population":11547},{"name":"Bethanie","ascii":"Bethanie","alternates":["Bethanien","Bethany"],"lat":-26.49958,"lng":17.1599,"population":10363},{"name":"Outjo","ascii":"Outjo","alternates":[],"lat":-20.10691,"lng":16.15415,"population":10009},{"name":"Usakos","ascii":"Usakos","alternates":[],"lat":-22.00219,"lng":15.58601,"population":9147},{"name":"Opuwo","ascii":"Opuwo","alternates":["OPW","Ohopoho","Ohopuho","Opuvo","Opuwa","apwww","awbww","awpwww","opu'o'o","opuuo","opuvo","ʿoፑwo"],"lat":-18.06068,"lng":13.83998,"population":9075},{"name":"Oranjemund","ascii":"Oranjemund","alternates":["OMD","Orange Mouth","Orangemund","Oranjemond"],"lat":-28.55153,"lng":16.42728,"population":8496},{"name":"Otjimbingwe","ascii":"Otjimbingwe","alternates":["Ochimbingve","Otjimbingue","ao qin bin gui","Очимбингве","奥钦宾圭","奧欽賓圭"],"lat":-22.35536,"lng":16.12883,"population":7677},{"name":"Outapi","ascii":"Outapi","alternates":["Autapi","Ombalantu","Uutapi","a'utapi","autapi","awtaby","awtapy","ʿeውtaፒ","Аутапи","أوتابي","اؤتاپی","اوتاپی"],"lat":-17.50375,"lng":14.98383,"population":7629},{"name":"Okahao","ascii":"Okahao","alternates":["Okahau"],"lat":-17.88758,"lng":15.06677,"population":7000},{"name":"Karibib","ascii":"Karibib","alternates":[],"lat":-21.93554,"lng":15.85654,"population":6898},{"name":"Warmbad","ascii":"Warmbad","alternates":["Varmbad","wamubaddo","Вармбад","ワームバッド"],"lat":-28.44611,"lng":18.73569,"population":6700},{"name":"Eenhana","ascii":"Eenhana","alternates":["Eenana","Ehehnkhana","Enana","aynhana","aynnhana","aynnہana","enahana","enhana","inahana","ʿenihana","Ээнхана","إينهانا"],"lat":-17.48535,"lng":16.3294,"population":6551},{"name":"Rosh Pinah","ascii":"Rosh Pinah","alternates":["RHN"],"lat":-27.96605,"lng":16.76136,"population":6540},{"name":"Otavi","ascii":"Otavi","alternates":["Otawi"],"lat":-19.63805,"lng":17.33986,"population":6213},{"name":"Arandis","ascii":"Arandis","alternates":["ADI","Arandys","arandisu","Арандис","Арандыс","Арандіс","ארנדיס","アランディス"],"lat":-22.41749,"lng":14.97385,"population":6127},{"name":"Karasburg","ascii":"Karasburg","alternates":["KAS","Kalkfontein","Kalkfontein South","ka la si bao","karasubagu","karazbwrgh","karazbwrj","Карасбург","كارازبورج","كارازبورغ","カラスバーグ","卡拉斯堡"],"lat":-28.01658,"lng":18.74797,"population":6054},{"name":"Osire","ascii":"Osire","alternates":[],"lat":-21.07391,"lng":17.36599,"population":5941},{"name":"Ondangwa East","ascii":"Ondangwa East","alternates":[],"lat":-17.93021,"lng":16.0172,"population":5742},{"name":"Henties Bay","ascii":"Henties Bay","alternates":["HentiesBay","Hentiesbaai"],"lat":-22.11609,"lng":14.28394,"population":5594},{"name":"Okakarara","ascii":"Okakarara","alternates":[],"lat":-20.58755,"lng":17.45942,"population":5581},{"name":"Aussenkehr","ascii":"Aussenkehr","alternates":[],"lat":-28.36274,"lng":17.41272,"population":5359},{"name":"Omuthiya","ascii":"Omuthiya","alternates":["Omuthiya Gwiipundi","Omutija","amwtya","amwtھya","awmwthya","awmwtھya","omuthi'a","omuthiya","omutia","ʿomutiya","Омутия","أوموثيا"],"lat":-18.36463,"lng":16.58146,"population":5000},{"name":"Oniipa","ascii":"Oniipa","alternates":["Ониипа"],"lat":-17.91667,"lng":16.03333,"population":4740},{"name":"Aranos","ascii":"Aranos","alternates":["Аранос"],"lat":-24.14126,"lng":19.11754,"population":4365},{"name":"Tsintsabis","ascii":"Tsintsabis","alternates":["Fischfontein"],"lat":-18.76936,"lng":17.9629,"population":4000},{"name":"Ruacana","ascii":"Ruacana","alternates":[],"lat":-17.42817,"lng":14.41504,"population":3537},{"name":"Groot Aub","ascii":"Groot Aub","alternates":["Aub"],"lat":-22.9385,"lng":17.19534,"population":3452},{"name":"Oshikuku","ascii":"Oshikuku","alternates":[],"lat":-17.63584,"lng":15.48173,"population":3272},{"name":"Gibeon","ascii":"Gibeon","alternates":[],"lat":-25.12213,"lng":17.76935,"population":3118},{"name":"Hoachanas","ascii":"Hoachanas","alternates":["Khoachanas","Хоачанас"],"lat":-23.92109,"lng":18.05328,"population":3000},{"name":"Maltahöhe","ascii":"Maltahoehe","alternates":["Maltahohe"],"lat":-24.83923,"lng":16.9859,"population":2819},{"name":"Ongandjera","ascii":"Ongandjera","alternates":["Angandzhehra","Okandjera","Ongandzhera","Rehoboth","Анганджэра","Онганджера","אונגנדג'רה"],"lat":-17.87847,"lng":15.06961,"population":2719},{"name":"Oshikango","ascii":"Oshikango","alternates":["Osikangas","Ošikangas","ao xi kan ge","awshykanghw","awshykanjw","oshikango","Ошиканго","أوشيكانغو","اوشيكانجو","オシカンゴ","奧希坎戈"],"lat":-17.40161,"lng":15.89077,"population":2658},{"name":"Ekongo","ascii":"Ekongo","alternates":["Okongo","Оконго"],"lat":-17.56667,"lng":17.21667,"population":2650},{"name":"Otjinene","ascii":"Otjinene","alternates":[],"lat":-21.13889,"lng":18.7836,"population":2491},{"name":"Noordoewer","ascii":"Noordoewer","alternates":[],"lat":-28.71817,"lng":17.62147,"population":2401},{"name":"Stampriet","ascii":"Stampriet","alternates":["Stampried","Stamprietfontein"],"lat":-24.34494,"lng":18.40464,"population":2307},{"name":"Oshivelo","ascii":"Oshivelo","alternates":["Oshawello"],"lat":-18.61972,"lng":17.16743,"population":2287},{"name":"Kamanjab","ascii":"Kamanjab","alternates":[],"lat":-19.62882,"lng":14.8452,"population":2127},{"name":"Witvlei","ascii":"Witvlei","alternates":["Witlvey","Witvley"],"lat":-22.41039,"lng":18.49359,"population":2095},{"name":"Bagani","ascii":"Bagani","alternates":["BQI"],"lat":-18.11065,"lng":21.61645,"population":2000},{"name":"Tses","ascii":"Tses","alternates":[],"lat":-25.88489,"lng":18.12469,"population":2000},{"name":"Aroab","ascii":"Aroab","alternates":["Araob"],"lat":-26.79744,"lng":19.6527,"population":1967},{"name":"Koës","ascii":"Koes","alternates":[],"lat":-25.93091,"lng":19.12814,"population":1813},{"name":"Uis","ascii":"Uis","alternates":["Groot Uis","Uis Mine","Uis Myn"],"lat":-21.2177,"lng":14.86569,"population":1771},{"name":"Tsumkwe","ascii":"Tsumkwe","alternates":["Cumkve","Tsumkwa","chu mu kui","chumkue","tsumukuue","Цумкве","ツムクウェ","楚姆奎","춤쿠에"],"lat":-19.59363,"lng":20.50203,"population":1664},{"name":"Kalkfeld","ascii":"Kalkfeld","alternates":["Kal'kfel'd","Kalkveld","Калькфельд"],"lat":-20.88719,"lng":16.19038,"population":1656},{"name":"Kalkrand","ascii":"Kalkrand","alternates":["Khalkrand"],"lat":-24.07367,"lng":17.58635,"population":1467},{"name":"Leonardville","ascii":"Leonardville","alternates":[],"lat":-23.50462,"lng":18.7912,"population":1411},{"name":"Okondjatu","ascii":"Okondjatu","alternates":[],"lat":-20.98168,"lng":18.22422,"population":1386},{"name":"Gochas","ascii":"Gochas","alternates":[],"lat":-24.85762,"lng":18.80137,"population":1378},{"name":"Okalongo","ascii":"Okalongo","alternates":[],"lat":-17.44006,"lng":15.33234,"population":1320},{"name":"Okombahe","ascii":"Okombahe","alternates":["Okombakhe","Окомбахе"],"lat":-21.358,"lng":15.37748,"population":1295},{"name":"Aus","ascii":"Aus","alternates":[],"lat":-26.66557,"lng":16.26109,"population":1263},{"name":"Schlip","ascii":"Schlip","alternates":[],"lat":-24.04631,"lng":17.12844,"population":1141},{"name":"Sesfontein","ascii":"Sesfontein","alternates":["Ohamuheke","Zesfontein","Zessfontein"],"lat":-19.12279,"lng":13.6205,"population":1088},{"name":"Linyanti","ascii":"Linyanti","alternates":[],"lat":-18.07229,"lng":24.01566,"population":1061},{"name":"Tsandi","ascii":"Tsandi","alternates":["Candi","Tshandi","Цанди"],"lat":-17.74292,"lng":14.88575,"population":1056},{"name":"Berseba","ascii":"Berseba","alternates":[],"lat":-25.9969,"lng":17.76817,"population":929},{"name":"Omungwelume","ascii":"Omungwelume","alternates":[],"lat":-17.50684,"lng":15.63421,"population":911},{"name":"Divundu","ascii":"Divundu","alternates":[],"lat":-18.0973,"lng":21.54752,"population":884},{"name":"Okanguati","ascii":"Okanguati","alternates":["Okangwati"],"lat":-17.43639,"lng":13.27324,"population":856},{"name":"Omitara","ascii":"Omitara","alternates":[],"lat":-22.28979,"lng":18.00847,"population":833},{"name":"Ariamsvlei","ascii":"Ariamsvlei","alternates":["Ariamsvley"],"lat":-28.11895,"lng":19.83612,"population":737},{"name":"Nkurenkuru","ascii":"Nkurenkuru","alternates":["Kuring Kuru","nakurenakuru","nikurenikuru","nkurenkuru","nkwrnkwrw","Нкуренкуру","نكورنكورو","نکورنکورو","नकुरेनकुरु","নকুরেনকুরু","ਨਕੁਰੇਨਕੁਰੂ","ንኩረንኩሩ"],"lat":-17.64182,"lng":18.61966,"population":732},{"name":"Bukalo","ascii":"Bukalo","alternates":[],"lat":-17.71799,"lng":24.53049,"population":711},{"name":"Omawewozonyanda","ascii":"Omawewozonyanda","alternates":["Omauozonjanda"],"lat":-21.60065,"lng":19.41752,"population":690},{"name":"Fransfontein","ascii":"Fransfontein","alternates":["Franzfontein","Франсфонтеин"],"lat":-20.21234,"lng":15.01473,"population":655},{"name":"Otjituuo","ascii":"Otjituuo","alternates":[],"lat":-19.6409,"lng":18.59454,"population":624},{"name":"Ogongo","ascii":"Ogongo","alternates":[],"lat":-17.67866,"lng":15.29608,"population":572},{"name":"Ongenga","ascii":"Ongenga","alternates":[],"lat":-17.44165,"lng":15.67389,"population":538},{"name":"Grünau","ascii":"Gruenau","alternates":["Grunau"],"lat":-27.7337,"lng":18.38012,"population":509}]