[{"name":"Victoria","ascii":"Victoria","alternates":["Biktoria","Fiktoria","Mahe","Mahé","Port Victoria","Victoria pa Seychellane","Victoria på Seychellane","Victòria","Viktori","Viktoria","Viktorii","Viktorija"],"lat":-4.62001,"lng":55.45501,"population":22881},{"name":"Cascade","ascii":"Cascade","alternates":["Kaskad","kaisakeda","kaiskeda","kasikadi","kaskad","kaskyډ","kasukedo","khæ s khed","kyasakeda","kyskyڈ","Каскад","كاسكاد"],"lat":-4.66915,"lng":55.49952,"population":7263},{"name":"Perseverance","ascii":"Perseverance","alternates":["Perseverans","Персеверанс"],"lat":-4.60445,"lng":55.46428,"population":6209},{"name":"Baie Sainte Anne","ascii":"Baie Sainte Anne","alternates":[],"lat":-4.31997,"lng":55.75338,"population":5063},{"name":"Baie Lazare","ascii":"Baie Lazare","alternates":[],"lat":-4.74971,"lng":55.4754,"population":4795},{"name":"Anse aux Pins","ascii":"Anse aux Pins","alternates":[],"lat":-4.686,"lng":55.522,"population":4685},{"name":"Plaisance","ascii":"Plaisance","alternates":[],"lat":-4.64085,"lng":55.46179,"population":4622},{"name":"Glacis","ascii":"Glacis","alternates":[],"lat":-4.57578,"lng":55.4368,"population":4496},{"name":"Grand'Anse","ascii":"Grand'Anse","alternates":[],"lat":-4.33109,"lng":55.72206,"population":4344},{"name":"English River","ascii":"English River","alternates":["English River (La Riviere Anglaise)","English River (La Rivière Anglaise)","La Riviere Anglaise","La Rivière Anglaise","xing li chri wexr","อิงลิชริเวอร์"],"lat":-4.61365,"lng":55.45475,"population":4236},{"name":"Anse Boileau","ascii":"Anse Boileau","alternates":["Ans-Bualo","ainasa bo'ilo","ans bwylw","ansubowaro","enasa bayelo","ensa bo'ilo","yns bwylw","ʿenisi boyilo","Анс-Буало","أنس بويلو","انس بویلو","ینس بویلو"],"lat":-4.71667,"lng":55.48333,"population":4183},{"name":"Bel Ombre","ascii":"Bel Ombre","alternates":["Bel'-Ombr","Belle Ombre","bela ambre","bela ombare","bela ombre","beruonburu","beል ʿoምbiri","bl ambr","byl ambr","byl awmbr","Бель-Омбр","بل امبر"],"lat":-4.61667,"lng":55.41667,"population":4163},{"name":"Beau Vallon","ascii":"Beau Vallon","alternates":["Bo-Vallon","bo vailona","bo valona","bo valoni","bobhyalana","bovuaron","bw falwn","bw waln","bw wyln","Бо-Валлон","بو فالون","بو والن"],"lat":-4.62091,"lng":55.43015,"population":4142},{"name":"Grand'Anse","ascii":"Grand'Anse","alternates":["Grand'Anse Mahe","Grand'Anse Mahé","La Misere","Misere"],"lat":-4.66667,"lng":55.46667,"population":4140},{"name":"Mont Fleuri","ascii":"Mont Fleuri","alternates":["Pier Ward"],"lat":-4.62695,"lng":55.45427,"population":4055},{"name":"La Digue","ascii":"La Digue","alternates":["Dig","Dih","La-Dig","La-Dih","Діг","Діґ","Ла-Діг","Ла-Діґ"],"lat":-4.35544,"lng":55.83527,"population":3934},{"name":"Roche Caïman","ascii":"Roche Caiman","alternates":["Caiman","Caïman","La Roche","La Roche Caiman","La Roche Caïman","Red Cayman"],"lat":-4.6401,"lng":55.46879,"population":3828},{"name":"Anse Royale","ascii":"Anse Royale","alternates":["Ans-Rojal'","Anse Royal","ainasa ro'i'ala","ans rwyal","ansurowaiyaru","enasa rayyala","ensa royala","yns rayl","ʿenisi royaል","Анс-Рояль","أنس رويال","انس رویال"],"lat":-4.73333,"lng":55.51667,"population":3818},{"name":"Pointe La Rue","ascii":"Pointe La Rue","alternates":[],"lat":-4.67323,"lng":55.5131,"population":3750},{"name":"Saint Louis","ascii":"Saint Louis","alternates":["Sankt Louis","St.Louis","senthluys","เซนต์หลุยส์"],"lat":-4.62457,"lng":55.44441,"population":3692},{"name":"Mont Buxton","ascii":"Mont Buxton","alternates":[],"lat":-4.61638,"lng":55.44821,"population":3383},{"name":"Port Glaud","ascii":"Port Glaud","alternates":["Port-Glod","bwrt jlwd","porata galada","porta glada","porta gloda","potoguro","pwrt glaډ","pwrt glwd","pwrٹ glaڈ","Порт-Глод","بورت جلود","پورت گلاډ"],"lat":-4.66256,"lng":55.41841,"population":3243},{"name":"Bel Air","ascii":"Bel Air","alternates":[],"lat":-4.62947,"lng":55.44547,"population":3129},{"name":"Les Mamelles","ascii":"Les Mamelles","alternates":["Mamelles"],"lat":-4.64584,"lng":55.46795,"population":2719},{"name":"Takamaka","ascii":"Takamaka","alternates":["takamaka","Такамака","تاكاماكا","تاکاماکا","तकामाका","তাকামাকা","ਤਕਾਮਾਕਾ","ታካማካ","タカマカ"],"lat":-4.76667,"lng":55.5,"population":2580},{"name":"La Passe","ascii":"La Passe","alternates":["La-Pas","la bas","la pas","la pasa","la ፓsi","rapasu","Ла-Пас","لا باس","لا پاس","ला पास","লা পাস","ਲਾ ਪਾਸ"],"lat":-4.34808,"lng":55.83269,"population":0}]