[{"name":"Ouagadougou","ascii":"Ouagadougou","alternates":["Huagadugu","OUA","Ouagadouga","Ouankantounkou","Ougadougou","Owagadugu","Uagadougou","Uagadugu","Uagaduguo","Uagadugú","Uaqaduqu","Vagadugu"],"lat":12.36566,"lng":-1.53388,"population":2415266},{"name":"Bobo-Dioulasso","ascii":"Bobo-Dioulasso","alternates":["BOY","Bobo Dioulasso","Bobo Diulasas","Bobo-Diulaco shaary","Bobo-Diulaso","Bobo-Diulasso","Bobodjulaso","Bɔbɔjulaso","bo bo di wu la suo","bobo-di'ulaso","bobo-diyolaso","bobo-diውlaso"],"lat":11.18064,"lng":-4.29489,"population":904920},{"name":"Koudougou","ascii":"Koudougou","alternates":["Kondougou","Kudugu","Kuduguo","khu du ku","ku du gu","kudougu","kudugu","kwdwghw","kwdwgw","kwdwګw","Кудугу","كودوغو"],"lat":12.25188,"lng":-2.36694,"population":160239},{"name":"Saaba","ascii":"Saaba","alternates":["Saba"],"lat":12.37136,"lng":-1.41468,"population":136011},{"name":"Ouahigouya","ascii":"Ouahigouya","alternates":["OUG","Uahiguja","Uakhiguja","Vakhiguja","Waiguya","o'ahigoya","oyahigoya","wa xi gu ya","wahigoya","wahiguya","wahyghwya","wahygwya"],"lat":13.5769,"lng":-2.41786,"population":124587},{"name":"Kaya","ascii":"Kaya","alternates":["Kaja","XKY","ka ya","kaya","kaya  brkyna fasw","Кая","كايا","کایا","کایا، برکینا فاسو","काया","কায়া","ਕਾਯਾ"],"lat":13.0883,"lng":-1.08368,"population":121970},{"name":"Banfora","ascii":"Banfora","alternates":["BNR","Banforu","banaphora","banfora","banfwra","bang fu la","bangpola","baniፎra","Банфора","Банфору","באנפורה","بانفورا"],"lat":10.64064,"lng":-4.75285,"population":117452},{"name":"Pouytenga","ascii":"Pouytenga","alternates":["Pouitenga","Pouitenga-Tanlili","Pouytenga Tanlili"],"lat":12.25162,"lng":-0.42565,"population":96469},{"name":"Houndé","ascii":"Hounde","alternates":["Hunde","Unde","handy","haunde","honide","hwndy","unde","Унде","هاندی","هوندي","ہawnڈے","ہاؤنڈے"],"lat":11.5,"lng":-3.51667,"population":87151},{"name":"Fada N'gourma","ascii":"Fada N'gourma","alternates":["FNG","Fada N'Gourma","Fada Ngourma","Fada N’Gourma","Fada-Ngurma","Fada-n-Gurma","fada ngwrma","fada nqwrma","fada nګwrma","fadangoruma","phada enagorama","phada n'gaurma"],"lat":12.06157,"lng":0.35843,"population":73200},{"name":"Nioko I","ascii":"Nioko I","alternates":["Nyoko"],"lat":12.39501,"lng":-1.43861,"population":65263},{"name":"Dédougou","ascii":"Dedougou","alternates":["DGU","Dedugu","dai du gu","ddwgw","dedougu","dedugu","dydwghw","dydwgw","Дедугу","ددوگو","ديدوغو","دیدؤگؤ"],"lat":12.4636,"lng":-3.46075,"population":63617},{"name":"Tenkodogo","ascii":"Tenkodogo","alternates":["TEG","Tenkodogas","tenakodogo","teng ke duo ge","tenikwedogo","tenkodogo","tnkwdwghw","tnkwdwgw","tnkwdwګw","tynkwdwgw","Тенкодого","تنكودوغو"],"lat":11.78442,"lng":-0.37184,"population":61936},{"name":"Djibo","ascii":"Djibo","alternates":["Dzhibo","Jibo","XDJ","jibo","jybw","Джибо","جيبو","جیبو","जीबो","জিবো","ਜੀਬੋ","ጂቦ"],"lat":14.09864,"lng":-1.62665,"population":61462},{"name":"Kongoussi","ascii":"Kongoussi","alternates":["Kongusi","kongaus'si","kongausi","kongousshi","kwenigusisi","kwnghwsy","kwngwsy","Конгуси","كونغوسي","کونگوسی","कोंगौस्सी","কোঙ্গৌস্সী"],"lat":13.32583,"lng":-1.53472,"population":53627},{"name":"Léo","ascii":"Leo","alternates":["Lev","XLU","leʾo","li'o","liyo","lyw","reo","Лев","ليو","لیو","लियो","লিও"],"lat":11.10033,"lng":-2.10654,"population":51743},{"name":"Koupéla","ascii":"Koupela","alternates":["Kupela","kaupela","kopela","kupera","kuፔla","kwbyla","kwpla","kwpyla","Купела","كوبيلا","کوپلا","کوپیلا"],"lat":12.17864,"lng":-0.35103,"population":49372},{"name":"Titao","ascii":"Titao","alternates":["tita'o","titanva","titao","titaʾo","tytaw","Титао","تيتاو","تیتاؤ","تیتاو","तितांव","টিটাও","ਤਿਤਾਓ"],"lat":13.76667,"lng":-2.06667,"population":48241},{"name":"Saonré","ascii":"Saonre","alternates":[],"lat":12.2751,"lng":-1.57692,"population":47728},{"name":"Dori","ascii":"Dori","alternates":["DOR","Doris","dari","dori","duo li","dwry","dwry  brkyna fasw","Дори","Дорі","دوري","دوری","دوری، برکینا فاسو"],"lat":14.03326,"lng":-0.03333,"population":46512},{"name":"Aribinda","ascii":"Aribinda","alternates":["Arbinda","XAR"],"lat":14.22963,"lng":-0.86537,"population":45818},{"name":"Gaoua","ascii":"Gaoua","alternates":["Gaua","Gava","XGA","gawa","jia wa","Гава","Гауа","گاؤا","加瓦","가와"],"lat":10.33137,"lng":-3.18202,"population":45284},{"name":"Garango","ascii":"Garango","alternates":["jia lang ge","Гаранго","Գարանգո","加朗戈"],"lat":11.8,"lng":-0.55056,"population":40404},{"name":"Gourcy","ascii":"Gourcy","alternates":["Goursi","Gursi","gaurasi","gaursi","ghwrsy","gorisi","gorushi","gwrsy","Гурси","غورسي","گورسی","गौर्सी"],"lat":13.20776,"lng":-2.35893,"population":40141},{"name":"Yako","ascii":"Yako","alternates":["Jako","iyako","yako","yakw","yakwe","Яко","ياكو","یاکو","याको","ইয়াকো","ਯਾਕੋ","ያኮ"],"lat":12.9591,"lng":-2.26075,"population":38679},{"name":"Zorgo","ascii":"Zorgo","alternates":["Zorgho","Zorogo","jargo","jorago","jorgo","zorigo","zorugo","zwrghw","zwrgw","zwrګw","Зорго","زورغو"],"lat":12.24922,"lng":-0.61527,"population":35398},{"name":"Réo","ascii":"Reo","alternates":["re'o","reo","reʾo","ri'o","ryw","Рео","ريو","ریو","रेओ","রিও","ਰਿਓ","ሬዖ"],"lat":12.31963,"lng":-2.47094,"population":33894},{"name":"Orodara","ascii":"Orodara","alternates":["ao luo da la","ao luo duo la","awrwdara","orodara","wrwdara","Ородара","أورودارا","اورودارا","ورودارا","オロダラ","奥罗达拉","奧羅多拉"],"lat":10.98115,"lng":-4.91885,"population":33422},{"name":"Ziniaré","ascii":"Ziniare","alternates":["Zimare","Zimaré","Zinarie","Zinarié","jiniare","jiniyara","zini'are","zini'ere","ziniyare","zynyar","Зиниаре","زينيار"],"lat":12.58236,"lng":-1.29753,"population":33296},{"name":"Niangoloko","ascii":"Niangoloko","alternates":["N'jangoloko","niangoroko","nyangwlwkw","Нианголоко","Ньянголоко","نیانگولوکو","ニアンゴロコ"],"lat":10.28333,"lng":-4.91667,"population":33292},{"name":"Nouna","ascii":"Nouna","alternates":["Naunna","XNU","nauna","nouna","noውna","nwna","Наунна","نونا","नौना","নৌনা","ਨੌਨਾ","ኖውና"],"lat":12.72939,"lng":-3.86305,"population":32428},{"name":"Bama","ascii":"Bama","alternates":[],"lat":12.0357,"lng":-4.3987,"population":31215},{"name":"Bittou","ascii":"Bittou","alternates":["Bitou","Bittu"],"lat":11.25806,"lng":-0.30611,"population":31210},{"name":"Kombissiri","ascii":"Kombissiri","alternates":["Kombisiri","Kombissiguiri","kambisiri","kombis'siri","kombisasiri","konbisshiri","kweምbisiri","kwmbysyry","Комбисири","كومبيسيري","کومبیسیری","कोंबिस्सिरी"],"lat":12.06884,"lng":-1.33644,"population":28617},{"name":"Manga","ascii":"Manga","alternates":["maga","manga","mangha","maniga","mnga","mnګa","myanga","Манга","مانغا","منګا","منگا","मंगा"],"lat":11.66496,"lng":-1.06977,"population":28615},{"name":"Pô","ascii":"Po","alternates":["PUP","bw","po","pw","По","بو","پو","पो","পো","ਪੋ","ፖ","ポー"],"lat":11.16972,"lng":-1.145,"population":28079},{"name":"Bourzanga","ascii":"Bourzanga","alternates":["Boulzanga","Bourzenga"],"lat":13.67806,"lng":-1.54611,"population":27213},{"name":"Barogo","ascii":"Barogo","alternates":[],"lat":12.55,"lng":-0.96667,"population":26539},{"name":"Gao","ascii":"Gao","alternates":[],"lat":11.64967,"lng":-2.17777,"population":26453},{"name":"Tougan","ascii":"Tougan","alternates":["TUQ","Tugan","taugana","tougan","tugani","twgan","twghan","Туган","تؤگان","توغان","توگان","तौगान"],"lat":13.07237,"lng":-3.06939,"population":26347},{"name":"Sapouy","ascii":"Sapouy","alternates":["Sapoui","Sapui","Sapuj","sabwy","sapauya","sapo'i","sapui","saፑyi","Сапуй","سابوي","سابوی","सापौय"],"lat":11.55444,"lng":-1.77361,"population":26345},{"name":"Yalgo","ascii":"Yalgo","alternates":[],"lat":12.93333,"lng":-0.85,"population":26340},{"name":"Kokologo","ascii":"Kokologo","alternates":["Kokolgho"],"lat":12.19392,"lng":-1.87687,"population":25958},{"name":"Dano","ascii":"Dano","alternates":["dano","danw","Дано","دانو","दानो","দানো","ਦਾਨੋ","ዳኖ","ダノ"],"lat":11.1464,"lng":-3.05784,"population":25922},{"name":"Mogtédo","ascii":"Mogtedo","alternates":[],"lat":12.28444,"lng":-0.83722,"population":25699},{"name":"Diébougou","ascii":"Diebougou","alternates":["D'ebugu","Diebugu","XDE","di'ebaugau","di'ebogo","dibebogu","dibugu","diebougou","dybwghw","dybwgw","Дьебугу","ديبوغو"],"lat":10.96209,"lng":-3.24967,"population":25688},{"name":"Boussé","ascii":"Bousse","alternates":["Busse","baus'se","bause","buse","busse","bwsh","bwsy","bwsے","Буссе","بوسه","بوسي","بوسے"],"lat":12.66121,"lng":-1.89515,"population":25022},{"name":"Solenzo","ascii":"Solenzo","alternates":["Salanso","Solenco","Solenso","solainazo","solenajo","solenizo","solenjo","sorenzo","swlnzw","swlynzw","Соленцо","سولنزو"],"lat":12.17423,"lng":-4.08477,"population":24783},{"name":"Boulsa","ascii":"Boulsa","alternates":["Boulssa","Bulsa","XBO","baulasa","burusa","buልsa","bwlsa","Булса","بولسا","बौलसा","বৌলসা","ਬੌਲਸਾ"],"lat":12.66664,"lng":-0.57469,"population":24200},{"name":"Pissila","ascii":"Pissila","alternates":[],"lat":13.16417,"lng":-0.8225,"population":23420},{"name":"Béguédo","ascii":"Beguedo","alternates":[],"lat":11.78083,"lng":-0.73389,"population":21894},{"name":"Zabré","ascii":"Zabre","alternates":["XZA","Zabere","Zabéré"],"lat":11.1825,"lng":-0.63222,"population":21726},{"name":"Bogandé","ascii":"Bogande","alternates":["Bogunde","XBG","bogande","boganide","bwghandy","bwgndy","bwgnڈے","Богунде","بوغاندي","بوگندی","بوگنڈے","बोगंडे"],"lat":12.97711,"lng":-0.14661,"population":21443},{"name":"Fara Department","ascii":"Fara Department","alternates":["Fara"],"lat":11.52941,"lng":-2.76797,"population":20434},{"name":"Boromo","ascii":"Boromo","alternates":["Borom","baromo","boromo","bwrwmw","Боромо","بورومو","बोरोमो","বরোমো","ਬੋਰੋਮੋ","ቦሮሞ","ボロモ"],"lat":11.74542,"lng":-2.93006,"population":20193},{"name":"Cinkansé","ascii":"Cinkanse","alternates":[],"lat":11.11857,"lng":0.00993,"population":19815},{"name":"Zinguédéssé","ascii":"Zinguedesse","alternates":["Zeguedesse","Zéguédessé","Zéguédéssé"],"lat":12.24661,"lng":-1.58402,"population":19648},{"name":"Korsimoro","ascii":"Korsimoro","alternates":[],"lat":12.82506,"lng":-1.06737,"population":18875},{"name":"Batié","ascii":"Batie","alternates":["Bat'e","Bati","bati","baty","baٹy","beti","Бати","Батие","Батье","باتي","باتی","باٹی"],"lat":9.88333,"lng":-2.91667,"population":17997},{"name":"Kouka","ascii":"Kouka","alternates":[],"lat":13.4345,"lng":-1.61361,"population":17286},{"name":"Natiaboani","ascii":"Natiaboani","alternates":[],"lat":11.69917,"lng":0.50611,"population":16640},{"name":"Tita","ascii":"Tita","alternates":["Napone","Naponé","Tita Napone","Tita Naponé"],"lat":11.92092,"lng":-2.51536,"population":16450},{"name":"Kindi","ascii":"Kindi","alternates":["Kindia"],"lat":12.4386,"lng":-2.03279,"population":16424},{"name":"Namponkoré","ascii":"Namponkore","alternates":[],"lat":11.73748,"lng":1.77718,"population":16423},{"name":"Tô","ascii":"To","alternates":[],"lat":11.44379,"lng":-2.22548,"population":16026},{"name":"Toma","ascii":"Toma","alternates":["toma","twma","Тома","توما","तोमा","টোমা","ਤੋਮਾ","ቶማ","トマ"],"lat":12.75844,"lng":-2.89879,"population":15851},{"name":"Diapaga","ascii":"Diapaga","alternates":["DIP","di'apaga","diapaga","diyapaga","diyaፓga","dyabgha","dyapaga","Диапага","ديابغا","دیاپاگا","ڈyapaga","ڈیاپاگا"],"lat":12.0729,"lng":1.78835,"population":15515},{"name":"Karankasso","ascii":"Karankasso","alternates":["Karangasso"],"lat":11.22191,"lng":-4.64423,"population":15474},{"name":"Gomboussougou","ascii":"Gomboussougou","alternates":["Bonsoungou","Bonsungu","Boussougou","Comboussougou","Komboussougou"],"lat":11.42611,"lng":-0.77278,"population":15336},{"name":"Gayéri","ascii":"Gayeri","alternates":["Gaeri","ga'iri","gaieri","gayeri","gayry","gayyry","ghayry","Гаери","غايري","گائیری","گایری","गायेरी"],"lat":12.64824,"lng":0.49314,"population":15170},{"name":"Pa","ascii":"Pa","alternates":[],"lat":12.66667,"lng":-3.95,"population":15170},{"name":"Mani","ascii":"Mani","alternates":["Manni"],"lat":13.25833,"lng":-0.21306,"population":15066},{"name":"Sabou","ascii":"Sabou","alternates":["Sabu"],"lat":12.06667,"lng":-2.23333,"population":15060},{"name":"Kompienga","ascii":"Kompienga","alternates":["Komp'enga","kampi'enga","kapi'enga","konpienga","kweምፒyeniga","kwmbyynja","kwmpyhnga","kwmpyynga","kwmpyynګa","Компьенга","كومبيينجا","کومپيينګا"],"lat":11.08169,"lng":0.72365,"population":15024},{"name":"Pama","ascii":"Pama","alternates":["Panea","XPA","bama","pama","Пама","باما","پاما","पामा","পামা","ਪਾਮਾ","ፓma","ፓማ"],"lat":11.24972,"lng":0.7075,"population":13579},{"name":"Ouargaye","ascii":"Ouargaye","alternates":["Ouargay","Uargaje","au'araga'e","au'aragaye","oyaragaya","uarugaie","wargayh","wargayے","warigaye","warkay","Уаргайе","واركاي"],"lat":11.50202,"lng":0.05886,"population":13431},{"name":"Sebba","ascii":"Sebba","alternates":["XSE","Zebba","sba","seba","sebba","syba","Себба","سبا","سيبا","सेब्बा","সেব্বা","ਸੇਬਾ"],"lat":13.43641,"lng":0.53044,"population":11298},{"name":"Nanoro","ascii":"Nanoro","alternates":["nanoro","なのろ"],"lat":12.68662,"lng":-2.19375,"population":10847},{"name":"Gorom-Gorom","ascii":"Gorom-Gorom","alternates":["Gorum-Gorum","XGG","ghwrm ghwrm","gorama-gorama","goroma-goroma","goromugoromu","goroም-goroም","gwrm gwrm","Горум-Горум","غورم غورم","گورم گورم","गोरम-गोरम"],"lat":14.4429,"lng":-0.23468,"population":9752},{"name":"Mangodara","ascii":"Mangodara","alternates":["Mangodaga"],"lat":9.90238,"lng":-4.3576,"population":9126},{"name":"Pitmoaga","ascii":"Pitmoaga","alternates":[],"lat":12.24564,"lng":-1.88148,"population":7991},{"name":"Sindou","ascii":"Sindou","alternates":["Sindu","shindou","sido","sindau","sinidu","sndw","syndw","Синду","سندو","سيندو","सिंदौ","সিন্ডৌ"],"lat":10.66667,"lng":-5.16667,"population":7053},{"name":"Goulouré","ascii":"Gouloure","alternates":[],"lat":12.23484,"lng":-1.93394,"population":6677},{"name":"Barani","ascii":"Barani","alternates":[],"lat":13.1691,"lng":-3.8899,"population":5000},{"name":"Kiougou-Kandaga","ascii":"Kiougou-Kandaga","alternates":[],"lat":11.79258,"lng":0.07531,"population":1732},{"name":"Sam","ascii":"Sam","alternates":[],"lat":12.08085,"lng":-2.00415,"population":1255},{"name":"Niaga","ascii":"Niaga","alternates":[],"lat":11.7,"lng":-3.15,"population":835},{"name":"Gonna","ascii":"Gonna","alternates":["Goana"],"lat":13.60603,"lng":-2.86633,"population":761},{"name":"Sièn","ascii":"Sien","alternates":["Sion"],"lat":12.6926,"lng":-2.8987,"population":707},{"name":"Nanom","ascii":"Nanom","alternates":[],"lat":12.1,"lng":-0.71667,"population":533},{"name":"Gousi","ascii":"Gousi","alternates":["Goussi"],"lat":12.6561,"lng":-2.7953,"population":516},{"name":"Absouya","ascii":"Absouya","alternates":[],"lat":12.6406,"lng":-1.05426,"population":0},{"name":"Bilanga","ascii":"Bilanga","alternates":[],"lat":12.54652,"lng":-0.02438,"population":0},{"name":"Bingo","ascii":"Bingo","alternates":[],"lat":12.30092,"lng":-1.8348,"population":0},{"name":"Boundoré","ascii":"Boundore","alternates":[],"lat":13.44114,"lng":0.90735,"population":0},{"name":"Boussouma","ascii":"Boussouma","alternates":["Bousouma","Bussuma"],"lat":12.91069,"lng":-1.0819,"population":0},{"name":"Dapélogo","ascii":"Dapelogo","alternates":["Dapelgho","Dapelgo","Dapélgo"],"lat":12.67274,"lng":-1.53907,"population":0},{"name":"Déou","ascii":"Deou","alternates":[],"lat":14.60084,"lng":-0.71901,"population":0},{"name":"Gaongo","ascii":"Gaongo","alternates":["Gaongho"],"lat":12.00414,"lng":-1.16455,"population":0},{"name":"Kayao","ascii":"Kayao","alternates":[],"lat":12.01295,"lng":-1.8419,"population":0},{"name":"Komki-Ipala","ascii":"Komki-Ipala","alternates":["Ipala-Komki","Komki"],"lat":12.18279,"lng":-1.79131,"population":0},{"name":"Komsilga","ascii":"Komsilga","alternates":["Komsilgha"],"lat":12.18653,"lng":-1.63379,"population":0},{"name":"Koubri","ascii":"Koubri","alternates":["Koubri-Nagbangre","Koubri-Nagbangré","Koubry","Nabagale","Nabagalé","Nabangre","Nabangré"],"lat":12.19785,"lng":-1.40662,"population":0},{"name":"Laye","ascii":"Laye","alternates":["Lai","Lay"],"lat":12.53118,"lng":-1.77684,"population":0},{"name":"Loumbila","ascii":"Loumbila","alternates":["Lambila-Poko","Lombila","Lumbila"],"lat":12.51863,"lng":-1.3734,"population":0},{"name":"Mané","ascii":"Mane","alternates":[],"lat":12.98836,"lng":-1.34434,"population":0},{"name":"Nagréongo","ascii":"Nagreongo","alternates":["Poedogo","Poédogo","Tiben","Tibin"],"lat":12.47847,"lng":-1.20129,"population":0},{"name":"Niou","ascii":"Niou","alternates":["Niu","Nyou"],"lat":12.76975,"lng":-1.93376,"population":0},{"name":"Ourgou-Manéga","ascii":"Ourgou-Manega","alternates":["Manega","Manera","Manéga","Manéra","Ourgou","Ourougou"],"lat":12.77994,"lng":-1.5077,"population":0},{"name":"Oursi","ascii":"Oursi","alternates":["Oursy","Worsi"],"lat":14.67553,"lng":-0.46033,"population":0},{"name":"Pabré","ascii":"Pabre","alternates":[],"lat":12.52147,"lng":-1.58631,"population":0},{"name":"Saponé","ascii":"Sapone","alternates":["Karkouidigen","Karkouidiguen","Karkouidiguin","Karkuidinghin"],"lat":12.05356,"lng":-1.60491,"population":0},{"name":"Siglé","ascii":"Sigle","alternates":[],"lat":12.55618,"lng":-1.88775,"population":0},{"name":"Sourgoubila","ascii":"Sourgoubila","alternates":["Sourgourbila"],"lat":12.41462,"lng":-1.80644,"population":0},{"name":"Tanghin-Dassouri","ascii":"Tanghin-Dassouri","alternates":["Dassouri","Dassuri","Tangen-Dassouri","Tangin Dassouri","Tanguen-Dassouri","Tanguin Dassouri"],"lat":12.27256,"lng":-1.71704,"population":0},{"name":"Tin-Akoff","ascii":"Tin-Akoff","alternates":["Ti-n-Akof","Tin Akof"],"lat":14.96549,"lng":-0.16335,"population":0},{"name":"Toéghin","ascii":"Toeghin","alternates":["Toeghen","Toeguen","Toeguin","Toueghen","Touéghen","Toéghen","Toéguen","Toéguin","Twegen","Twégen"],"lat":12.8159,"lng":-1.72763,"population":0},{"name":"Zitenga","ascii":"Zitenga","alternates":[],"lat":12.74846,"lng":-1.30989,"population":0}]