[{"name":"Al Muharraq","ascii":"Al Muharraq","alternates":["Al Muharrak","Al Muḩarraq","Al'-Mukharrak","Al-Muharrak","Al-Muharraq","Al-Muḥarrak","Moharek","Muharrak","Muharraq","Muharraq Town","Muhurraq","aalmuharaq"],"lat":26.25722,"lng":50.61194,"population":176583},{"name":"Manama","ascii":"Manama","alternates":["Al Manama","Al Manamah","Al Manāma","Al Manāmah","Al-Manama","Al-Manamah","Al-Manāmah","Maenamae","Manaama","Manam","Manamae","Manamah"],"lat":26.22787,"lng":50.58565,"population":147074},{"name":"Madīnat Ḩamad","ascii":"Madinat Hamad","alternates":["Hamad Town","Hamad by","Həməd","Khamad","Madinat Hamadas","Mantinat Chamant","ha ma de zhen","hamada sahara","hamadeutaun","hmd","madinat hamad","mdynh hmd"],"lat":26.11528,"lng":50.50694,"population":133550},{"name":"Ar Rifā‘","ascii":"Ar Rifa'","alternates":["Al-Riffa","Ar Rifa","Ar Rifa`","Ar-Rifa","Ar-Rifa'","Ar-Rifā‘","Er Rifaa","Rifa","Riffa","Ryfa","ar-Rifa'","ar-Rifā‘"],"lat":26.13,"lng":50.555,"population":115495},{"name":"Sitrah","ascii":"Sitrah","alternates":["Sitra","sitrat","strh","strt","sytrh","Ситра","סיטרה","سترة","ستره","سترہ","سِتْرَة"],"lat":26.15472,"lng":50.62056,"population":72601},{"name":"Jidd Ḩafş","ascii":"Jidd Hafs","alternates":["Djidd Hafs","Djidd Ḥafṣ","Jadd Hafs","Jid Hafs","Judd Hafs","Judd Ḩafş","jid hafs","جِدّ حَفْص"],"lat":26.21861,"lng":50.54778,"population":66588},{"name":"Dār Kulayb","ascii":"Dar Kulayb","alternates":["Dar Chulaib","Dar Kulaib","Dār Kulaib","dar kulayb","دَار كُلَيْب"],"lat":26.06861,"lng":50.50389,"population":65466},{"name":"Madīnat ‘Īsá","ascii":"Madinat `Isa","alternates":["'Isa","Isa","Isa Town","Isa by","Madinat 'Isa","Madinat Isa","Madinat-Isa","Madinat-İsa","Mantinat Isa","Medinat Isa","Medine Isa","Medine İsa"],"lat":26.17361,"lng":50.54778,"population":38090},{"name":"Al Ḩadd","ascii":"Al Hadd","alternates":["Al Hidd","Al Ḩidd","Hadd","Hidd","aalhad","اَلْحَدّ"],"lat":26.24556,"lng":50.65417,"population":12797},{"name":"Az Zallāq","ascii":"Az Zallaq","alternates":["Al-Zallak","Al-Zallāk","Ehz-Zallak","Zalak","Zallak","Zallaq","Zellaq","Zelzaq","aalzalaaq","alzlaq","zai la ge","zaraku"],"lat":26.0475,"lng":50.48639,"population":9095},{"name":"Sanābis","ascii":"Sanabis","alternates":["As Sanabis","As Sanābīs","sanabis","سَنَابِس"],"lat":26.22722,"lng":50.55083,"population":6564}]