[{"name":"Abidjan","ascii":"Abidjan","alternates":["ABJ","Abican","Abidzan","Abidzana","Abidzanas","Abidzans","Abidzhan","Abidzhan shaary","Abidżan","Abidžan","Abidžana","Abidžanas"],"lat":5.35444,"lng":-4.00167,"population":6321017},{"name":"Abobo","ascii":"Abobo","alternates":["Abobo-Gare"],"lat":5.41613,"lng":-4.0159,"population":1340083},{"name":"Bouaké","ascii":"Bouake","alternates":["BYK","Buake","Bvake","Bvakė","Bwake","baw ke","bu wa kai","bu'ake","buake","buwake","buyake","bwakh"],"lat":7.69385,"lng":-5.03031,"population":832371},{"name":"Korhogo","ascii":"Korhogo","alternates":["HGO","Korhogas","Korkhogo","Korogo","ke huo ge","kologo","korahogo","korogo","kwerihogo","kwrwghw","kwrwgw","kwrwګw"],"lat":9.45803,"lng":-5.62961,"population":440926},{"name":"Daloa","ascii":"Daloa","alternates":["DJO","da luo ya","dalloa","dalo'a","dalowe","daloya","dalwa","daroa","Далоа","דאלואה","دالوا","दलोआ"],"lat":6.87735,"lng":-6.45022,"population":421871},{"name":"Koumassi","ascii":"Koumassi","alternates":[],"lat":5.29716,"lng":-3.96753,"population":412282},{"name":"San-Pédro","ascii":"San-Pedro","alternates":["SPY","San Pedras","San Pedro","San Pédro","saina-pedro","san bydrw","san pdrw","san pydrw","san pyڈrw","san=pedoro","sana-pedro","sangpedeulo"],"lat":4.74851,"lng":-6.6363,"population":390654},{"name":"Gagnoa","ascii":"Gagnoa","alternates":["GGN","Gan'oa","Ganjoa","Gragnoa","gagano'a","gaganoya","gagnoa","gagnwa","gaigano'a","ganyoa","ganyowa","ganywa"],"lat":6.13193,"lng":-5.9506,"population":277044},{"name":"Yamoussoukro","ascii":"Yamoussoukro","alternates":["ASK","Giamoussoukro","Jamusukra","Jamusukras","Jamusukro","Jamusukro khot","Yamosukro","Yamousoukro","Yamoussokro","Yamoussoukrou","Yamussukro","Yamusukro"],"lat":6.82055,"lng":-5.27674,"population":275686},{"name":"Sinfra","ascii":"Sinfra","alternates":[],"lat":6.62103,"lng":-5.91144,"population":245226},{"name":"Man","ascii":"Man","alternates":["MJC","man","mana","mani","myana","Ман","مان","मान","ম্যান","ਮਾਨ","ማን","マン"],"lat":7.41251,"lng":-7.55383,"population":241969},{"name":"Marcory","ascii":"Marcory","alternates":[],"lat":5.31198,"lng":-3.99363,"population":214061},{"name":"Bondoukou","ascii":"Bondoukou","alternates":["BDK","Bondoukau","Bonduku","Boudoukou","Gontoukou","bandauku","bang du ku","bondauku","bondo'uku","bondouku","boniduku","bwndwkw"],"lat":8.0402,"lng":-2.80003,"population":141568},{"name":"Dabou","ascii":"Dabou","alternates":["Dab","Dabu","Даб"],"lat":5.32556,"lng":-4.37685,"population":138083},{"name":"Divo","ascii":"Divo","alternates":["Boudougou","DIV","Divas","di wo","Диво","迪沃"],"lat":5.83739,"lng":-5.35723,"population":136627},{"name":"Anyama","ascii":"Anyama","alternates":["An'jame","Aniama","Anyama Sossokoua","Аньяме"],"lat":5.49462,"lng":-4.05183,"population":133905},{"name":"Soubré","ascii":"Soubre","alternates":[],"lat":5.78377,"lng":-6.59388,"population":131181},{"name":"Abengourou","ascii":"Abengourou","alternates":["Abenguru","OGO","a ben gu lu","abang-gulu","abenaguru","abengoru","abenguro","abenguru","abngwrw","abnqwrw","abnګwrw","ʿebeniguru"],"lat":6.72972,"lng":-3.49639,"population":130810},{"name":"Bonon","ascii":"Bonon","alternates":[],"lat":6.9268,"lng":-6.0489,"population":119938},{"name":"Duekoué","ascii":"Duekoue","alternates":[],"lat":6.74202,"lng":-7.34918,"population":117023},{"name":"Bouaflé","ascii":"Bouafle","alternates":["Buafle"],"lat":6.99041,"lng":-5.7442,"population":104209},{"name":"Séguéla","ascii":"Seguela","alternates":["SEO","Segela","Segele","Segu","segela","segera","segu'ela","seguyela","sgwyla","sygyla","syjwyla","syګwyla"],"lat":7.96111,"lng":-6.67306,"population":103980},{"name":"Daoukro","ascii":"Daoukro","alternates":["Daoukrou","Daukro","Даукро"],"lat":7.0591,"lng":-3.9631,"population":101136},{"name":"Grand-Bassam","ascii":"Grand-Bassam","alternates":["Gran Basamas","Gran-Basam","Gran-Bassam","Grand Bassam","da ba sa mu","gran-basami","grayanda-bas'sama","Гран-Басам","Гран-Бассам","גראן-בסאם","ग्रयाण्ड-बस्सम","გრან-ბასამი"],"lat":5.2118,"lng":-3.73884,"population":96797},{"name":"Vavoua","ascii":"Vavoua","alternates":["Vavua","Вавуа"],"lat":7.38194,"lng":-6.47778,"population":86977},{"name":"Bingerville","ascii":"Bingerville","alternates":[],"lat":5.35581,"lng":-3.88537,"population":82983},{"name":"Agboville","ascii":"Agboville","alternates":["Agbovil'","Agbovile","Agbovilis","a bo wei er","agbawyl","agbwwyl","Агбовиле","Агбовиль","Агбовіль","اگباویل","اگبوویل","阿博維爾"],"lat":5.92801,"lng":-4.21319,"population":81770},{"name":"Danané","ascii":"Danane","alternates":["Fort Hittos","Данане"],"lat":7.25957,"lng":-8.15498,"population":78614},{"name":"Adzopé","ascii":"Adzope","alternates":["Адзопе"],"lat":6.10694,"lng":-3.86194,"population":76122},{"name":"Méagui","ascii":"Meagui","alternates":[],"lat":5.4119,"lng":-6.5603,"population":74365},{"name":"Ferkessédougou","ascii":"Ferkessedougou","alternates":["Ferekesedugu","Ferkesedugu","Firkessedougou","Firkessedugu","Firkessédougou","Firkessédugu","Pofire","Serkessedougou","Феркеседугу"],"lat":9.5928,"lng":-5.19449,"population":72476},{"name":"Dimbokro","ascii":"Dimbokro","alternates":["DIM","dimabokaro","dimbokro","dinbokuro","diምbokiro","dymbwkrw","Димбокро","ديمبوكرو","دیمبوکرو","ڈmbwkrw","ڈمبوکرو","ډmbwkrw"],"lat":6.64678,"lng":-4.70519,"population":70198},{"name":"Issia","ascii":"Issia","alternates":["yi xi ya","伊西亞"],"lat":6.49224,"lng":-6.58558,"population":68263},{"name":"Guiglo","ascii":"Guiglo","alternates":["GGO","Guglo"],"lat":6.54368,"lng":-7.4935,"population":68113},{"name":"Zagné","ascii":"Zagne","alternates":["Zanie","Zanié"],"lat":6.21016,"lng":-7.48284,"population":63341},{"name":"Agnibilékrou","ascii":"Agnibilekrou","alternates":["Anibelekru"],"lat":7.13113,"lng":-3.20415,"population":63015},{"name":"Katiola","ascii":"Katiola","alternates":["KTC","Lafouka"],"lat":8.13728,"lng":-5.10095,"population":59641},{"name":"Aboisso","ascii":"Aboisso","alternates":["ABO","Abisso","Aboisas","Aboiso","Aboissa","Abuasso","a bo yi suo","abwaysw","Абоисо","Абуассо","ابوایسو","阿博伊索"],"lat":5.46779,"lng":-3.20711,"population":59225},{"name":"Oumé","ascii":"Oume","alternates":["Ume"],"lat":6.38309,"lng":-5.41759,"population":58606},{"name":"Toumodi","ascii":"Toumodi","alternates":["Tumodi"],"lat":6.55799,"lng":-5.01769,"population":55986},{"name":"Odienné","ascii":"Odienne","alternates":["KEO","Odjene","Odjenė","adyan","ao die nei","awdyan","awڈynے","awډyan","odi'ena","odi'enne","odien'nu","odiyenna"],"lat":9.50511,"lng":-7.56433,"population":54669},{"name":"Tengréla","ascii":"Tengrela","alternates":["Tingrela","Tingréla"],"lat":10.48115,"lng":-6.40694,"population":52271},{"name":"Boundiali","ascii":"Boundiali","alternates":["BXI","Boundiouli","Bundiali","Bunjali","ben gu li","Бундиали","本賈利"],"lat":9.52167,"lng":-6.48694,"population":51803},{"name":"Bonoua","ascii":"Bonoua","alternates":["Bonua","Bunua","Grand Akapless"],"lat":5.27247,"lng":-3.59625,"population":49434},{"name":"Ouangolodougou","ascii":"Ouangolodougou","alternates":["Wangolodougou","Wangolodugu"],"lat":9.96837,"lng":-5.14882,"population":49248},{"name":"Doropo","ascii":"Doropo","alternates":[],"lat":9.80955,"lng":-3.34577,"population":48225},{"name":"Affery","ascii":"Affery","alternates":["Aferi","Aféri","Grand Aferi","Grand Aféri"],"lat":6.32035,"lng":-3.95235,"population":47109},{"name":"Zuénoula","ascii":"Zuenoula","alternates":["Zenoula","Zouenoula","Zouénoula","Zénoula"],"lat":7.43027,"lng":-6.05054,"population":44097},{"name":"Diégonéfla","ascii":"Diegonefla","alternates":["Diegonefra","Diégonéfra"],"lat":6.28919,"lng":-5.57413,"population":43456},{"name":"Bloléquin","ascii":"Blolequin","alternates":["Blolekin","Blolékin"],"lat":6.56913,"lng":-8.00253,"population":41821},{"name":"Hiré","ascii":"Hire","alternates":[],"lat":6.18878,"lng":-5.29463,"population":41430},{"name":"Djapadji","ascii":"Djapadji","alternates":[],"lat":5.29114,"lng":-6.82023,"population":39673},{"name":"Arrah","ascii":"Arrah","alternates":["Arra"],"lat":6.67342,"lng":-3.96938,"population":37432},{"name":"Fengolo","ascii":"Fengolo","alternates":["Feuglo"],"lat":6.78634,"lng":-7.39338,"population":37165},{"name":"Grand-Lahou","ascii":"Grand-Lahou","alternates":["Grand Lahu"],"lat":5.13825,"lng":-5.02123,"population":36906},{"name":"Bongouanou","ascii":"Bongouanou","alternates":["Bonguanu","Bougouanou","Бонгуану"],"lat":6.65175,"lng":-4.20406,"population":36379},{"name":"Akoupé","ascii":"Akoupe","alternates":["Akupe"],"lat":6.38423,"lng":-3.88759,"population":35970},{"name":"Tanda","ascii":"Tanda","alternates":["Tan N'Da","Tan N’Da","Tanga"],"lat":7.80335,"lng":-3.16832,"population":35854},{"name":"Goya","ascii":"Goya","alternates":["Goya Blao","Goya I"],"lat":6.56487,"lng":-7.42735,"population":35292},{"name":"Ndouci","ascii":"Ndouci","alternates":["N'Doussi","Ntuzi","N’Doussi","Touzi"],"lat":5.86383,"lng":-4.7609,"population":35145},{"name":"Tiassalé","ascii":"Tiassale","alternates":[],"lat":5.89839,"lng":-4.82293,"population":35090},{"name":"Saïoua","ascii":"Saioua","alternates":["Saouia","Seieoua","Seïéoua"],"lat":6.48535,"lng":-6.278,"population":34860},{"name":"Sassandra","ascii":"Sassandra","alternates":["Sasandra","ZSS","sa sang de la","sasandra","Сасандра","Сассандра","ساساندرا","薩桑德拉"],"lat":4.95384,"lng":-6.08531,"population":34492},{"name":"Ahouanou","ascii":"Ahouanou","alternates":[],"lat":5.50565,"lng":-4.8588,"population":33939},{"name":"Dianra","ascii":"Dianra","alternates":["Dyana"],"lat":8.94333,"lng":-6.2549,"population":33548},{"name":"Balakouya","ascii":"Balakouya","alternates":["Balekouea","Balekuea","Balokoueadou","Balokouéadou","Balokuya","Balékouéa","Balékuéa"],"lat":5.20771,"lng":-6.35163,"population":33150},{"name":"Béoumi","ascii":"Beoumi","alternates":["Beumi"],"lat":7.67395,"lng":-5.58085,"population":33089},{"name":"Kahin","ascii":"Kahin","alternates":["Kahen"],"lat":6.91413,"lng":-7.63121,"population":32991},{"name":"Buyo","ascii":"Buyo","alternates":["Bouyo","Lagoguhe","Lagoguhé"],"lat":6.27534,"lng":-6.99704,"population":32847},{"name":"Gligbeuadji","ascii":"Gligbeuadji","alternates":[],"lat":5.2,"lng":-6.7,"population":32380},{"name":"Lakota","ascii":"Lakota","alternates":["Iakota","Лакота"],"lat":5.84752,"lng":-5.682,"population":32376},{"name":"Grand-Zattry","ascii":"Grand-Zattry","alternates":[],"lat":6.1162,"lng":-6.53603,"population":31326},{"name":"Ancien-Prozi","ascii":"Ancien-Prozi","alternates":[],"lat":7.66885,"lng":-6.96881,"population":31245},{"name":"Bonoufla","ascii":"Bonoufla","alternates":[],"lat":7.12906,"lng":-6.47424,"population":30420},{"name":"Konéfla","ascii":"Konefla","alternates":["Konefra","Konéfra"],"lat":6.65166,"lng":-5.60501,"population":30217},{"name":"Zouan-Hounien","ascii":"Zouan-Hounien","alternates":["Zoum Hounien","Zoun-Hounien"],"lat":6.91937,"lng":-8.2065,"population":29649},{"name":"Tabou","ascii":"Tabou","alternates":["TXU","Tabu"],"lat":4.42295,"lng":-7.3528,"population":29469},{"name":"Touba","ascii":"Touba","alternates":["TOZ","Tuba"],"lat":8.28333,"lng":-7.68333,"population":28986},{"name":"M’Bengué","ascii":"M'Bengue","alternates":["M'Begue","M'Begue Sokoro","Mbengue","Mbenguie","Mbenguié","Mbengué","Mbingue","Mbingué","Mbngue","Mbngué","M’Bégué","M’Bégué Sôkoro"],"lat":10.00244,"lng":-5.90037,"population":28832},{"name":"Gbapleu","ascii":"Gbapleu","alternates":["Bapleu"],"lat":6.47983,"lng":-7.16528,"population":28802},{"name":"Boboniessoko","ascii":"Boboniessoko","alternates":["Bobo","Bobo Niassoko","Bobo-Niasoko"],"lat":6.96589,"lng":-6.65652,"population":27529},{"name":"Zaliohouan","ascii":"Zaliohouan","alternates":["Zalihouan","Zaliouan"],"lat":6.79519,"lng":-6.2355,"population":27050},{"name":"Diawala","ascii":"Diawala","alternates":["Diaouala","Diaoulia","Diaoulla","Diaulia","Niandegogo","Niandégogo"],"lat":10.10701,"lng":-5.47295,"population":26206},{"name":"Kaouara","ascii":"Kaouara","alternates":["Kaoura","Kaura","Kawara","Kawara Camp","Kouara"],"lat":10.09085,"lng":-5.19482,"population":26142},{"name":"Guépaouo","ascii":"Guepaouo","alternates":["Gouepaouo","Gouépaouo","Guepahouo","Guepao","Guépahouo","Guépao"],"lat":6.47268,"lng":-5.70615,"population":26111},{"name":"Yabayo","ascii":"Yabayo","alternates":[],"lat":5.93876,"lng":-6.59826,"population":26037},{"name":"Luénoufla","ascii":"Luenoufla","alternates":[],"lat":7.07236,"lng":-6.24125,"population":25463},{"name":"Zou","ascii":"Zou","alternates":[],"lat":6.97647,"lng":-7.79834,"population":25210},{"name":"Gonaté","ascii":"Gonate","alternates":[],"lat":6.90418,"lng":-6.24347,"population":24838},{"name":"Niellé","ascii":"Nielle","alternates":["Niele","Niélé"],"lat":10.19814,"lng":-5.62337,"population":24780},{"name":"Adiaké","ascii":"Adiake","alternates":[],"lat":5.28634,"lng":-3.30403,"population":24701},{"name":"Tiébissou","ascii":"Tiebissou","alternates":["Tiebissu"],"lat":7.15772,"lng":-5.2248,"population":24412},{"name":"Bouna","ascii":"Bouna","alternates":["BQO","Buna","Буна"],"lat":9.26927,"lng":-2.9951,"population":24312},{"name":"Oupoyo","ascii":"Oupoyo","alternates":[],"lat":5.56054,"lng":-6.58997,"population":23834},{"name":"M’Batto","ascii":"M'Batto","alternates":["Mbato","Mboto"],"lat":6.47197,"lng":-4.35781,"population":23722},{"name":"Belleville","ascii":"Belleville","alternates":[],"lat":6.18021,"lng":-6.90529,"population":23595},{"name":"Belleville","ascii":"Belleville","alternates":[],"lat":6.87341,"lng":-6.84829,"population":23595},{"name":"Bangolo Tahouake","ascii":"Bangolo Tahouake","alternates":["Bangolo"],"lat":7.04119,"lng":-7.168,"population":23420},{"name":"Guibéroua","ascii":"Guiberoua","alternates":["Guibehorouo","Guiberou","Guibieouroua","Guibiéouroua","Guibéhorouo"],"lat":6.23869,"lng":-6.17147,"population":23371},{"name":"Biankouma","ascii":"Biankouma","alternates":[],"lat":7.73909,"lng":-7.61377,"population":23232},{"name":"Mabéhiri","ascii":"Mabehiri","alternates":["Mabouhiri"],"lat":5.66667,"lng":-6.41667,"population":23215},{"name":"Para","ascii":"Para","alternates":[],"lat":5.51956,"lng":-7.32755,"population":22807},{"name":"Gabiadji","ascii":"Gabiadji","alternates":[],"lat":5.0234,"lng":-6.56157,"population":22619},{"name":"Bédiala","ascii":"Bediala","alternates":["Bediata","Bédiata"],"lat":7.16008,"lng":-6.30642,"population":22419},{"name":"Tafiré","ascii":"Tafire","alternates":["Taffire-Soba","Tafire-Soba","Tafiré-Soba"],"lat":9.06883,"lng":-5.16404,"population":22284},{"name":"Dagbao I","ascii":"Dagbao I","alternates":["Dabouyo","Dagbo","Dagbohio","Dagbouyo"],"lat":5.56025,"lng":-6.02111,"population":22056},{"name":"Gnatroa","ascii":"Gnatroa","alternates":[],"lat":5.92273,"lng":-6.15013,"population":21879},{"name":"Bangolo","ascii":"Bangolo","alternates":["Zagna"],"lat":7.01232,"lng":-7.48639,"population":21861},{"name":"Gohouo","ascii":"Gohouo","alternates":[],"lat":7.05402,"lng":-7.44035,"population":21824},{"name":"Niakaramandougou","ascii":"Niakaramandougou","alternates":["Niankarama Kaha","Niankaramadougou","Niankaramadugu","Niankaramandougou"],"lat":8.65759,"lng":-5.29109,"population":21793},{"name":"Fronan","ascii":"Fronan","alternates":[],"lat":8.21494,"lng":-5.12549,"population":21579},{"name":"Biéby","ascii":"Bieby","alternates":["Biebi","Biébi"],"lat":6.07873,"lng":-3.63548,"population":21578},{"name":"Dagadji","ascii":"Dagadji","alternates":[],"lat":5.12569,"lng":-6.81483,"population":21333},{"name":"Galébré","ascii":"Galebre","alternates":[],"lat":6.0059,"lng":-6.29403,"population":21245},{"name":"Moussadougou","ascii":"Moussadougou","alternates":[],"lat":6.154,"lng":-5.69334,"population":21186},{"name":"Sahoua","ascii":"Sahoua","alternates":["Sakoua","Saoua"],"lat":5.06191,"lng":-6.25997,"population":20838},{"name":"Watté","ascii":"Watte","alternates":[],"lat":4.9353,"lng":-6.77828,"population":20769},{"name":"Tortiya","ascii":"Tortiya","alternates":[],"lat":8.76821,"lng":-5.6865,"population":20738},{"name":"Touih","ascii":"Touih","alternates":[],"lat":5.25604,"lng":-6.53249,"population":20686},{"name":"Aboisso Comoé","ascii":"Aboisso Comoe","alternates":["Malamalasso"],"lat":5.7351,"lng":-3.40338,"population":20659},{"name":"Niablé","ascii":"Niable","alternates":["Niabley"],"lat":6.66129,"lng":-3.26984,"population":20422},{"name":"Bécédi-Brignan","ascii":"Becedi-Brignan","alternates":["Becedi-Mbrignan","Bessedi-Brignan","Bécédi-Mbrignan","Béssédi-Brignan"],"lat":5.90909,"lng":-4.01281,"population":20284},{"name":"Guézon","ascii":"Guezon","alternates":[],"lat":6.74177,"lng":-7.11742,"population":20057},{"name":"Guézon","ascii":"Guezon","alternates":["Bodi-goazon"],"lat":6.56696,"lng":-7.70203,"population":20057},{"name":"Bléniméouin","ascii":"Blenimeouin","alternates":[],"lat":7.13333,"lng":-7.18333,"population":19689},{"name":"Mankono","ascii":"Mankono","alternates":[],"lat":8.05861,"lng":-6.18972,"population":19597},{"name":"Gnago","ascii":"Gnago","alternates":[],"lat":5.24032,"lng":-5.79516,"population":19370},{"name":"Ahigbé Koffikro","ascii":"Ahigbe Koffikro","alternates":["Koffikro","Kofikro"],"lat":5.40755,"lng":-3.38023,"population":19351},{"name":"Mahapleu","ascii":"Mahapleu","alternates":[],"lat":7.22474,"lng":-7.93118,"population":19342},{"name":"M’Bahiakro","ascii":"M'Bahiakro","alternates":["M'Bahiacro","M'Bahiakrou","M'Bakiakro","Mbayakro","M’Bahiacro","M’Bahiakrou","M’Bakiakro"],"lat":7.45728,"lng":-4.33993,"population":19307},{"name":"Doukouya","ascii":"Doukouya","alternates":[],"lat":6.42623,"lng":-5.55925,"population":19290},{"name":"Ogoudou","ascii":"Ogoudou","alternates":[],"lat":5.89674,"lng":-5.15792,"population":19158},{"name":"Lobakuya","ascii":"Lobakuya","alternates":["Labakuya","Lebakuya"],"lat":5.09053,"lng":-6.34438,"population":18713},{"name":"Ebilassokro","ascii":"Ebilassokro","alternates":["Ebilassekrou","Ebilassékrou","Ebillasokro"],"lat":6.37917,"lng":-3.34722,"population":18530},{"name":"Erémankono","ascii":"Eremankono","alternates":["Heremankono Dies","Heremankono Diès","Heremankono-Garo","Hermankono","Hermankono-Garo","Hérémankono Diès"],"lat":5.92829,"lng":-5.02252,"population":18428},{"name":"Niapidou","ascii":"Niapidou","alternates":["Niapadou"],"lat":5.34849,"lng":-6.05601,"population":18336},{"name":"Dabakala","ascii":"Dabakala","alternates":["Dabakla"],"lat":8.36321,"lng":-4.42863,"population":18322},{"name":"Pélézi","ascii":"Pelezi","alternates":[],"lat":7.28174,"lng":-6.81449,"population":18278},{"name":"Mignouré","ascii":"Mignoure","alternates":["Minioure","Miniouré","Minyoure","Minyouré"],"lat":7.4875,"lng":-6.78821,"population":18180},{"name":"Rubino","ascii":"Rubino","alternates":[],"lat":6.07,"lng":-4.31056,"population":18180},{"name":"Dikodougou","ascii":"Dikodougou","alternates":["Dikodugu"],"lat":9.06757,"lng":-5.77222,"population":18087},{"name":"Azaguié","ascii":"Azaguie","alternates":[],"lat":5.62984,"lng":-4.08204,"population":17987},{"name":"Guéssabo","ascii":"Guessabo","alternates":["Guesabo","Guésabo"],"lat":6.73668,"lng":-6.95487,"population":17944},{"name":"Vrouo","ascii":"Vrouo","alternates":[],"lat":7.69644,"lng":-6.55352,"population":17716},{"name":"Baoutifla","ascii":"Baoutifla","alternates":["Baboulifla","Bahoulifla","Baoulifla"],"lat":7.23425,"lng":-6.47485,"population":17712},{"name":"Gbabam","ascii":"Gbabam","alternates":["Grand Babam","Lagbam"],"lat":5.46651,"lng":-5.58678,"population":17699},{"name":"Bianouan","ascii":"Bianouan","alternates":["Bianuan","Byanouan"],"lat":6.01203,"lng":-3.19024,"population":17561},{"name":"Zaïbo","ascii":"Zaibo","alternates":["Zahibo"],"lat":6.9893,"lng":-6.66673,"population":17406},{"name":"Bahé-Blaon","ascii":"Bahe-Blaon","alternates":["Bahe","Bahé"],"lat":6.67073,"lng":-7.34265,"population":17216},{"name":"Sakassou","ascii":"Sakassou","alternates":["Sakasso","Sakassu"],"lat":7.45462,"lng":-5.29263,"population":17093},{"name":"Maféré","ascii":"Mafere","alternates":[],"lat":5.4151,"lng":-3.03006,"population":17008},{"name":"Okromodou","ascii":"Okromodou","alternates":["Okroinodou"],"lat":5.35123,"lng":-5.67593,"population":16922},{"name":"Touagui","ascii":"Touagui","alternates":[],"lat":5.43102,"lng":-6.55946,"population":16684},{"name":"Nambingué","ascii":"Nambingue","alternates":["Nampingue","Nanbingue","Nanbingué","Nianpereque","Nianpéréqué"],"lat":10.05,"lng":-5.33778,"population":16677},{"name":"Diourouzon","ascii":"Diourouzon","alternates":["Dieouzon"],"lat":6.88922,"lng":-7.51952,"population":16666},{"name":"Gadouan","ascii":"Gadouan","alternates":["Godouan"],"lat":6.65623,"lng":-6.16609,"population":16620},{"name":"Kranzadougou","ascii":"Kranzadougou","alternates":[],"lat":6.48496,"lng":-7.20101,"population":16614},{"name":"Petitgoa I","ascii":"Petitgoa I","alternates":["Pelegoua","Petigoa","Petogoa","Pitigoa 1","Pitigoa Un","Pélégoua","Pétogoa"],"lat":6.12024,"lng":-6.71253,"population":16457},{"name":"Andé","ascii":"Ande","alternates":[],"lat":6.78176,"lng":-4.08517,"population":16341},{"name":"Nzianouan","ascii":"Nzianouan","alternates":["Nzianoa"],"lat":6.01161,"lng":-4.82133,"population":16337},{"name":"Gbolouville","ascii":"Gbolouville","alternates":[],"lat":5.79408,"lng":-4.66127,"population":16321},{"name":"Bayota","ascii":"Bayota","alternates":[],"lat":6.46477,"lng":-5.95427,"population":16298},{"name":"Logoualé","ascii":"Logouale","alternates":["Logwale"],"lat":7.10769,"lng":-7.55207,"population":16106},{"name":"Petit Grabo","ascii":"Petit Grabo","alternates":[],"lat":5.26902,"lng":-7.31421,"population":16054},{"name":"Baibli","ascii":"Baibli","alternates":[],"lat":7.17618,"lng":-7.29729,"population":16018},{"name":"Loboville","ascii":"Loboville","alternates":[],"lat":6.13656,"lng":-6.84096,"population":16006},{"name":"Gagny","ascii":"Gagny","alternates":[],"lat":5.0491,"lng":-6.74477,"population":15910},{"name":"Zéaglo","ascii":"Zeaglo","alternates":[],"lat":6.56297,"lng":-7.8172,"population":15873},{"name":"Okrouyo","ascii":"Okrouyo","alternates":[],"lat":5.76443,"lng":-6.40785,"population":15852},{"name":"Gnépasso","ascii":"Gnepasso","alternates":[],"lat":4.98218,"lng":-7.06024,"population":15835},{"name":"Flakièdougou","ascii":"Flakiedougou","alternates":[],"lat":8.48273,"lng":-3.1273,"population":15815},{"name":"Gaoulou","ascii":"Gaoulou","alternates":["Gaoulo","Gooulou"],"lat":5.03347,"lng":-6.15137,"population":15794},{"name":"Kolia","ascii":"Kolia","alternates":[],"lat":9.7651,"lng":-6.46372,"population":15716},{"name":"Aboka","ascii":"Aboka","alternates":[],"lat":6.53867,"lng":-6.81589,"population":15627},{"name":"Dignago","ascii":"Dignago","alternates":["Dinyago"],"lat":6.29164,"lng":-6.27945,"population":15621},{"name":"Zoukougbeu","ascii":"Zoukougbeu","alternates":["Zoukougbe"],"lat":6.76229,"lng":-6.8638,"population":15375},{"name":"Kouibly","ascii":"Kouibly","alternates":["Kouibli","Kouilly"],"lat":7.25597,"lng":-7.23508,"population":15335},{"name":"Borotou-Koro","ascii":"Borotou-Koro","alternates":[],"lat":8.49111,"lng":-7.17861,"population":15293},{"name":"Nizahon II","ascii":"Nizahon II","alternates":[],"lat":6.37222,"lng":-7.39891,"population":15290},{"name":"Bognonzra","ascii":"Bognonzra","alternates":[],"lat":6.94321,"lng":-5.96734,"population":15282},{"name":"Kong","ascii":"Kong","alternates":[],"lat":9.14943,"lng":-4.60982,"population":15262},{"name":"Diéhiba","ascii":"Diehiba","alternates":[],"lat":6.90152,"lng":-7.41376,"population":15253},{"name":"Guéyo","ascii":"Gueyo","alternates":["Guehio","Guelhio","Gueyo I","Guéhio","Guéyo I"],"lat":5.6882,"lng":-6.0712,"population":15080},{"name":"Songon","ascii":"Songon","alternates":[],"lat":5.3196,"lng":-4.25415,"population":14977},{"name":"Yakassé-Attobrou","ascii":"Yakasse-Attobrou","alternates":["Yakasse","Yakassé"],"lat":6.18174,"lng":-3.65111,"population":14907},{"name":"Guitry","ascii":"Guitry","alternates":["Gitri","Guitri"],"lat":5.51952,"lng":-5.24038,"population":14836},{"name":"Aboudé","ascii":"Aboude","alternates":["Aboude Kouassikro","Aboudé Kouassikro","Abude"],"lat":5.89609,"lng":-4.56253,"population":14828},{"name":"Marahui","ascii":"Marahui","alternates":[],"lat":8.61522,"lng":-2.75076,"population":14827},{"name":"Dakpadou","ascii":"Dakpadou","alternates":["Dagpadou"],"lat":5.25664,"lng":-6.06774,"population":14825},{"name":"Luéhouan","ascii":"Luehouan","alternates":["Luehoa","Lueoan","Lueohan","Luéhoa","Luéoan","Luéohan"],"lat":6.29916,"lng":-6.77104,"population":14811},{"name":"Bazré","ascii":"Bazre","alternates":["Bazai"],"lat":6.72443,"lng":-5.48283,"population":14767},{"name":"Dokpodon","ascii":"Dokpodon","alternates":[],"lat":5.18955,"lng":-5.45087,"population":14717},{"name":"Bogbam","ascii":"Bogbam","alternates":[],"lat":6.38085,"lng":-6.19258,"population":14657},{"name":"Ouragahio","ascii":"Ouragahio","alternates":["Ouergahio","Ouergayo","Ouergayou"],"lat":6.31058,"lng":-5.93473,"population":14587},{"name":"Jacqueville","ascii":"Jacqueville","alternates":["Half Jack","Jackville","Jaqueville"],"lat":5.20515,"lng":-4.4146,"population":14383},{"name":"Kouto","ascii":"Kouto","alternates":[],"lat":9.89029,"lng":-6.40921,"population":14245},{"name":"Anonkoua","ascii":"Anonkoua","alternates":[],"lat":5.4273,"lng":-4.04872,"population":14232},{"name":"Toulépleu Gueré","ascii":"Toulepleu Guere","alternates":[],"lat":6.57395,"lng":-8.42592,"population":14098},{"name":"Dianra-Village","ascii":"Dianra-Village","alternates":["Dianana","Dianfa","Dianha","Dianra"],"lat":8.76437,"lng":-6.24411,"population":14028},{"name":"Dapéoua","ascii":"Dapeoua","alternates":["Dapehoua","Dapéhoua"],"lat":6.13774,"lng":-6.87847,"population":13945},{"name":"Walébo","ascii":"Walebo","alternates":[],"lat":5.58377,"lng":-6.83339,"population":13865},{"name":"Bocanda","ascii":"Bocanda","alternates":["Bokanda"],"lat":7.06264,"lng":-4.49948,"population":13849},{"name":"Zegban","ascii":"Zegban","alternates":["Zegbe","Zegbé"],"lat":5.16369,"lng":-5.58882,"population":13843},{"name":"Sémien","ascii":"Semien","alternates":["Semian","Sémian"],"lat":7.61419,"lng":-7.12955,"population":13762},{"name":"Scierie","ascii":"Scierie","alternates":[],"lat":6.32778,"lng":-5.52229,"population":13694},{"name":"Bouandougou","ascii":"Bouandougou","alternates":["Bouendougou","Buandougou","Buandugu","Bwandougou"],"lat":8.21598,"lng":-5.66962,"population":13665},{"name":"Adjaméné","ascii":"Adjamene","alternates":[],"lat":4.76645,"lng":-6.84326,"population":13638},{"name":"Lobogba","ascii":"Lobogba","alternates":[],"lat":5.98014,"lng":-6.73576,"population":13608},{"name":"Yaoudé","ascii":"Yaoude","alternates":[],"lat":6.5588,"lng":-7.44612,"population":13587},{"name":"Abongoua","ascii":"Abongoua","alternates":[],"lat":6.6527,"lng":-4.10178,"population":13492},{"name":"Gbliglo","ascii":"Gbliglo","alternates":[],"lat":6.13533,"lng":-7.02576,"population":13485},{"name":"Bagohouo","ascii":"Bagohouo","alternates":[],"lat":6.89011,"lng":-7.19282,"population":13441},{"name":"Botro","ascii":"Botro","alternates":[],"lat":7.85249,"lng":-5.31063,"population":13375},{"name":"Konédougou","ascii":"Konedougou","alternates":[],"lat":6.03991,"lng":-6.66579,"population":13354},{"name":"Butubré I","ascii":"Butubre I","alternates":["Boutoubre","Boutoubré","Boutubre","Boutubré","Broutoubre","Broutoubré"],"lat":5.51071,"lng":-6.44838,"population":13344},{"name":"Séchi","ascii":"Sechi","alternates":["Cechi","Céchi"],"lat":6.25143,"lng":-4.42194,"population":13329},{"name":"Manzanoua","ascii":"Manzanoua","alternates":["Manzannouan","Manzanouan","Manzanuan"],"lat":6.84346,"lng":-3.28625,"population":13224},{"name":"Bamo","ascii":"Bamo","alternates":[],"lat":5.80501,"lng":-5.96597,"population":13206},{"name":"Diangobo","ascii":"Diangobo","alternates":[],"lat":6.14632,"lng":-3.64219,"population":13205},{"name":"Sinématiali","ascii":"Sinematiali","alternates":[],"lat":9.5841,"lng":-5.38476,"population":13174},{"name":"Dafrahinou Darinsala","ascii":"Dafrahinou Darinsala","alternates":["Dafrahinou"],"lat":6.43243,"lng":-7.08849,"population":13157},{"name":"Goménébéri","ascii":"Gomeneberi","alternates":[],"lat":5.37889,"lng":-5.51833,"population":13132},{"name":"Kanakono","ascii":"Kanakono","alternates":["Kanakoro"],"lat":10.35497,"lng":-6.23634,"population":13127},{"name":"Monoko Zohi Deux","ascii":"Monoko Zohi Deux","alternates":["Monoko-Zoi","Monokon Zohi"],"lat":7.06992,"lng":-6.84476,"population":13112},{"name":"Bacon","ascii":"Bacon","alternates":["Bakon"],"lat":6.35602,"lng":-3.91017,"population":13066},{"name":"Ananguié","ascii":"Ananguie","alternates":[],"lat":6.22299,"lng":-3.77333,"population":12979},{"name":"Songan","ascii":"Songan","alternates":["Sangan"],"lat":6.10929,"lng":-3.20843,"population":12947},{"name":"Ouattaradougou","ascii":"Ouattaradougou","alternates":[],"lat":6.59172,"lng":-7.19591,"population":12880},{"name":"Zouan","ascii":"Zouan","alternates":[],"lat":6.54502,"lng":-7.59902,"population":12873},{"name":"Gnato","ascii":"Gnato","alternates":[],"lat":4.43338,"lng":-7.54031,"population":12803},{"name":"Gomon","ascii":"Gomon","alternates":["Gouma"],"lat":5.72358,"lng":-4.44129,"population":12759},{"name":"Yakassémé","ascii":"Yakasseme","alternates":["Yacasse","Yacassé","Yakasse","Yakasse-Me","Yakassé","Yakassé-Mé","Yakosse-Me","Yakossé-Mé"],"lat":5.81052,"lng":-3.9511,"population":12733},{"name":"Zagoréta","ascii":"Zagoreta","alternates":[],"lat":6.6756,"lng":-6.15347,"population":12705},{"name":"Zaguiéta","ascii":"Zaguieta","alternates":[],"lat":6.78815,"lng":-6.06288,"population":12690},{"name":"Assuéfri","ascii":"Assuefri","alternates":[],"lat":7.69973,"lng":-2.97847,"population":12650},{"name":"Sankadiokro","ascii":"Sankadiokro","alternates":["Sankadiokrou","Sankoidiakrou","Sankoidiokro","Sankouadiokro","Sarkoidiakro"],"lat":6.86165,"lng":-3.48564,"population":12620},{"name":"Gnouboyo","ascii":"Gnouboyo","alternates":["Noboyo"],"lat":5.878,"lng":-6.40086,"population":12611},{"name":"Bèfla","ascii":"Befla","alternates":[],"lat":7.21185,"lng":-6.13989,"population":12604},{"name":"Damé","ascii":"Dame","alternates":[],"lat":7.07085,"lng":-3.14883,"population":12543},{"name":"Gohitafla","ascii":"Gohitafla","alternates":["Gouatafla","Gouitafla","Gouytafla","Guitafla"],"lat":7.49076,"lng":-5.87952,"population":12519},{"name":"Bédigoazon","ascii":"Bedigoazon","alternates":["Bedi-Goazon","Bedy Goazon","Bédi-Goazon","Bédy Goazon"],"lat":6.56363,"lng":-7.77749,"population":12477},{"name":"Gbon","ascii":"Gbon","alternates":["Bong","Gbogui"],"lat":9.83238,"lng":-6.44716,"population":12464},{"name":"Zérégbo","ascii":"Zeregbo","alternates":["Zerebo","Zerebole","Zérébo","Zérébolé"],"lat":7.07081,"lng":-7.91012,"population":12334},{"name":"Vaou","ascii":"Vaou","alternates":[],"lat":7.44358,"lng":-6.99199,"population":12331},{"name":"Goudi","ascii":"Goudi","alternates":[],"lat":6.12401,"lng":-5.10372,"population":12324},{"name":"Noé","ascii":"Noe","alternates":[],"lat":5.29388,"lng":-2.78478,"population":12199},{"name":"Goh","ascii":"Goh","alternates":[],"lat":5.2323,"lng":-6.63627,"population":12186},{"name":"Manfla","ascii":"Manfla","alternates":[],"lat":7.41135,"lng":-5.91127,"population":12151},{"name":"Appouessou","ascii":"Appouessou","alternates":["Apoisso","Apouesso"],"lat":6.54846,"lng":-3.42755,"population":12150},{"name":"Pinhou","ascii":"Pinhou","alternates":[],"lat":6.92125,"lng":-7.75791,"population":12149},{"name":"Zaranou","ascii":"Zaranou","alternates":["Zarandu","Zaranu"],"lat":6.4265,"lng":-3.36171,"population":12116},{"name":"Grand Berebi","ascii":"Grand Berebi","alternates":["Basa","Bassa","Bossa","Grand Bereby","Grand Béréby","Kadabou","Kadabu","Village Grand Bereby","Yeh"],"lat":4.65098,"lng":-6.9237,"population":12104},{"name":"Aniassué","ascii":"Aniassue","alternates":["Agniassue","Agniassué","Aniasue","Aniasué"],"lat":6.65368,"lng":-3.68103,"population":12088},{"name":"Téiri","ascii":"Teiri","alternates":["Tehiri","Téhiri"],"lat":6.3981,"lng":-5.9846,"population":12086},{"name":"Douagué","ascii":"Douague","alternates":["Douagouae","Douagouaé"],"lat":7.47944,"lng":-7.13336,"population":12022},{"name":"Lessiri","ascii":"Lessiri","alternates":[],"lat":5.90971,"lng":-6.48897,"population":11993},{"name":"Ayaou-Sokpa","ascii":"Ayaou-Sokpa","alternates":[],"lat":7.42057,"lng":-5.61407,"population":11933},{"name":"Bacanda","ascii":"Bacanda","alternates":["Bakanda"],"lat":5.63331,"lng":-4.87758,"population":11892},{"name":"Gbétogo","ascii":"Gbetogo","alternates":["Gbeto","Gbéto","Gouetogo","Gouetougou","Gouétogo","Gouétougou"],"lat":8.12639,"lng":-6.94361,"population":11828},{"name":"Adahidoukou","ascii":"Adahidoukou","alternates":[],"lat":5.31083,"lng":-5.2246,"population":11823},{"name":"Alépé","ascii":"Alepe","alternates":["Little Alepe"],"lat":5.5004,"lng":-3.66308,"population":11725},{"name":"Tchétaly","ascii":"Tchetaly","alternates":[],"lat":6.17923,"lng":-7.07116,"population":11659},{"name":"Grabo","ascii":"Grabo","alternates":[],"lat":4.92035,"lng":-7.49562,"population":11640},{"name":"Kani","ascii":"Kani","alternates":[],"lat":8.47807,"lng":-6.60509,"population":11547},{"name":"Sirasso","ascii":"Sirasso","alternates":["Sirhasso","Soloka"],"lat":9.27425,"lng":-6.09897,"population":11497},{"name":"Danguira","ascii":"Danguira","alternates":["Danguira I","Denguera","Denguira","Denguéra"],"lat":5.67033,"lng":-3.76763,"population":11481},{"name":"Guézon-Tahouaké","ascii":"Guezon-Tahouake","alternates":[],"lat":7.0761,"lng":-7.18719,"population":11438},{"name":"Sarakagui","ascii":"Sarakagui","alternates":[],"lat":5.81904,"lng":-6.80444,"population":11385},{"name":"Niakoblonyoa","ascii":"Niakoblonyoa","alternates":[],"lat":5.71802,"lng":-5.96702,"population":11350},{"name":"Bobosso-Tiénigbé","ascii":"Bobosso-Tienigbe","alternates":[],"lat":8.45183,"lng":-5.78737,"population":11319},{"name":"Johin","ascii":"Johin","alternates":[],"lat":5.80465,"lng":-6.78437,"population":11281},{"name":"Tiégba","ascii":"Tiegba","alternates":[],"lat":6.2328,"lng":-5.65306,"population":11252},{"name":"Kouaméfra","ascii":"Kouamefra","alternates":[],"lat":6.59205,"lng":-5.42399,"population":11237},{"name":"Amélékia","ascii":"Amelekia","alternates":["Ameleya","Améléya"],"lat":6.83036,"lng":-3.57522,"population":11192},{"name":"Toumoukro","ascii":"Toumoukro","alternates":["Ntoumoukoro","Toungboro"],"lat":10.3855,"lng":-5.75062,"population":11172},{"name":"Ayamé","ascii":"Ayame","alternates":[],"lat":5.6052,"lng":-3.15709,"population":11149},{"name":"Gblétia","ascii":"Gbletia","alternates":[],"lat":5.6337,"lng":-6.62994,"population":11141},{"name":"Bonaouin","ascii":"Bonaouin","alternates":["Benaouin","Bonnaoue","Bonnaoué","Bénaouin"],"lat":6.56474,"lng":-3.76066,"population":11114},{"name":"Kagbé","ascii":"Kagbe","alternates":[],"lat":6.16599,"lng":-5.34964,"population":11096},{"name":"Atrobou","ascii":"Atrobou","alternates":["Atobrou","Attobrou","Attobru"],"lat":6.09021,"lng":-4.0589,"population":11091},{"name":"Diabo","ascii":"Diabo","alternates":["Dihabo"],"lat":7.78959,"lng":-5.17102,"population":11047},{"name":"Béttié","ascii":"Bettie","alternates":["Betie","Bétié"],"lat":6.07568,"lng":-3.40846,"population":10960},{"name":"Brou akpaousso","ascii":"Brou akpaousso","alternates":["Bourou Akpouassou","Brou Akpaoussou"],"lat":6.90916,"lng":-4.05582,"population":10914},{"name":"Dahiri","ascii":"Dahiri","alternates":["Dairi"],"lat":5.26206,"lng":-5.52897,"population":10885},{"name":"Zata","ascii":"Zata","alternates":["Zatta"],"lat":6.87914,"lng":-5.40398,"population":10877},{"name":"Kouétinfla","ascii":"Kouetinfla","alternates":[],"lat":6.61223,"lng":-6.06037,"population":10872},{"name":"Assié koumassi","ascii":"Assie koumassi","alternates":[],"lat":6.76966,"lng":-4.28954,"population":10856},{"name":"Tiémélékro","ascii":"Tiemelekro","alternates":[],"lat":6.49214,"lng":-4.61985,"population":10856},{"name":"Abongoua","ascii":"Abongoua","alternates":["Abengoua"],"lat":6.24709,"lng":-3.54335,"population":10854},{"name":"Grébouo","ascii":"Grebouo","alternates":[],"lat":5.66667,"lng":-6.33333,"population":10829},{"name":"Diarabana","ascii":"Diarabana","alternates":["Diabala","Diarabala","Diarabara","Diaralaba","Dyarabara"],"lat":8.18668,"lng":-6.60866,"population":10815},{"name":"Madogé","ascii":"Madoge","alternates":["Madogue","Madogué"],"lat":7.02886,"lng":-6.47253,"population":10815},{"name":"Offumpo","ascii":"Offumpo","alternates":["Afumpo","Offoumpo","Ofoumpo","Ofumbo","Ofumpo"],"lat":5.95186,"lng":-4.45667,"population":10791},{"name":"Korokaha","ascii":"Korokaha","alternates":["Korohara","Korokara"],"lat":9.90059,"lng":-5.62764,"population":10769},{"name":"Kamala","ascii":"Kamala","alternates":["Kammala"],"lat":8.43434,"lng":-2.72108,"population":10763},{"name":"Kétésso","ascii":"Ketesso","alternates":[],"lat":5.87796,"lng":-3.17407,"population":10711},{"name":"Ouamélhoro","ascii":"Ouamelhoro","alternates":["Wamelhoro","Wemelhoro","Wémélhoro"],"lat":10.33226,"lng":-5.62113,"population":10695},{"name":"Ottawa","ascii":"Ottawa","alternates":[],"lat":5.71842,"lng":-6.27466,"population":10586},{"name":"Tobly Bangolo","ascii":"Tobly Bangolo","alternates":[],"lat":6.74276,"lng":-7.18864,"population":10552},{"name":"Diédrou","ascii":"Diedrou","alternates":[],"lat":6.99139,"lng":-7.77825,"population":10509},{"name":"Kokoumbo","ascii":"Kokoumbo","alternates":["Kokumbo","Kokumbo-Baoule","Kokumbo-Baoulé","Kolumbo"],"lat":6.54246,"lng":-5.25925,"population":10493},{"name":"Kacoukro","ascii":"Kacoukro","alternates":[],"lat":5.29605,"lng":-3.37752,"population":10475},{"name":"Saph","ascii":"Saph","alternates":[],"lat":5.13289,"lng":-6.72693,"population":10471},{"name":"Nguinou","ascii":"Nguinou","alternates":["N'Guinou"],"lat":6.75052,"lng":-4.16133,"population":10469},{"name":"Zoroyo","ascii":"Zoroyo","alternates":["Obrouayo"],"lat":5.89548,"lng":-6.65079,"population":10441},{"name":"Gbabo","ascii":"Gbabo","alternates":[],"lat":7.12097,"lng":-6.76377,"population":10436},{"name":"Momiraso","ascii":"Momiraso","alternates":["Momirasso"],"lat":9.70654,"lng":-5.16887,"population":10431},{"name":"Trahé","ascii":"Trahe","alternates":[],"lat":4.71577,"lng":-7.17566,"population":10426},{"name":"Séitifla","ascii":"Seitifla","alternates":[],"lat":7.43926,"lng":-6.71813,"population":10422},{"name":"Broudoukou-Kpenda","ascii":"Broudoukou-Kpenda","alternates":[],"lat":5.52314,"lng":-5.51411,"population":10408},{"name":"Siétinfla","ascii":"Sietinfla","alternates":[],"lat":6.82764,"lng":-5.73008,"population":10404},{"name":"Zéga","ascii":"Zega","alternates":[],"lat":6.50061,"lng":-6.42126,"population":10404},{"name":"Agbaou","ascii":"Agbaou","alternates":["Agbau"],"lat":6.34136,"lng":-3.85433,"population":10386},{"name":"Brobo","ascii":"Brobo","alternates":["Gorobo","Kouadio Priko","Kouadio Prikro"],"lat":7.64026,"lng":-4.82541,"population":10382},{"name":"Complexe","ascii":"Complexe","alternates":[],"lat":7.60288,"lng":-6.14386,"population":10366},{"name":"Hannié","ascii":"Hannie","alternates":[],"lat":5.19401,"lng":-7.35304,"population":10356},{"name":"Sangouiné","ascii":"Sangouine","alternates":["Sangone","Sangoné"],"lat":7.27472,"lng":-7.77944,"population":10313},{"name":"Zambakro","ascii":"Zambakro","alternates":[],"lat":6.73322,"lng":-5.41117,"population":10301},{"name":"Kétro","ascii":"Ketro","alternates":["Ketro-Bassam","Kétro-Bassam"],"lat":7.18256,"lng":-6.643,"population":10290},{"name":"Dibobli","ascii":"Dibobli","alternates":[],"lat":6.73952,"lng":-7.02156,"population":10274},{"name":"Kouta","ascii":"Kouta","alternates":["Kouba","Kuta"],"lat":5.48849,"lng":-5.23249,"population":10266},{"name":"Didiévi","ascii":"Didievi","alternates":[],"lat":7.12866,"lng":-4.89804,"population":10262},{"name":"Kasséré","ascii":"Kassere","alternates":["Kassire","Kassiré","Kofire","Kofiré"],"lat":9.82723,"lng":-6.2167,"population":10255},{"name":"Tomono","ascii":"Tomono","alternates":["Toumono"],"lat":8.32598,"lng":-6.10395,"population":10209},{"name":"Bécouéfin","ascii":"Becouefin","alternates":["Becouefi","Bekouefin","Bekuefin","Bécouéfi","Békouéfin"],"lat":6.48086,"lng":-3.84625,"population":10169},{"name":"Tacourably","ascii":"Tacourably","alternates":[],"lat":7.2551,"lng":-7.17898,"population":10160},{"name":"Nékédé","ascii":"Nekede","alternates":["Nakede","Nakédé"],"lat":6.46392,"lng":-5.99848,"population":10157},{"name":"Gnititoigui","ascii":"Gnititoigui","alternates":[],"lat":5.34392,"lng":-6.48204,"population":10126},{"name":"Kouassi-Kouassikro","ascii":"Kouassi-Kouassikro","alternates":["Koissi-Koissikro"],"lat":7.34141,"lng":-4.67709,"population":10102},{"name":"Datta","ascii":"Datta","alternates":[],"lat":5.9363,"lng":-5.32465,"population":10095},{"name":"Ipouagui","ascii":"Ipouagui","alternates":[],"lat":5.51902,"lng":-6.83564,"population":10095},{"name":"Pogo","ascii":"Pogo","alternates":["Poho","Pouro","Puro"],"lat":10.43669,"lng":-5.63062,"population":10077},{"name":"Tieupleu","ascii":"Tieupleu","alternates":["Teapleu","Tiapole","Tiapolé","Tiepleu","Tiépleu","Téapleu"],"lat":7.04069,"lng":-8.15318,"population":10033},{"name":"Gourané","ascii":"Gourane","alternates":[],"lat":7.61198,"lng":-7.2986,"population":10029},{"name":"Blahou","ascii":"Blahou","alternates":[],"lat":4.93107,"lng":-6.55781,"population":10019},{"name":"Yaou","ascii":"Yaou","alternates":["Yau"],"lat":5.79773,"lng":-3.13823,"population":9999},{"name":"Floleu","ascii":"Floleu","alternates":[],"lat":6.84397,"lng":-8.12554,"population":9962},{"name":"Taobly","ascii":"Taobly","alternates":["Taobli"],"lat":7.41388,"lng":-7.18576,"population":9949},{"name":"Kami","ascii":"Kami","alternates":[],"lat":6.88289,"lng":-5.27871,"population":9936},{"name":"Yakassé-Feyassé","ascii":"Yakasse-Feyasse","alternates":["Feyasse","Feyassé","Yakasse","Yakassé"],"lat":6.9557,"lng":-3.4126,"population":9934},{"name":"Diafla","ascii":"Diafla","alternates":["Dyafla"],"lat":7.42124,"lng":-6.86751,"population":9933},{"name":"Sodesucre Village","ascii":"Sodesucre Village","alternates":[],"lat":9.50652,"lng":-5.27788,"population":9933},{"name":"Bin-Houyé","ascii":"Bin-Houye","alternates":["Binhouye","Binhouyé"],"lat":6.78241,"lng":-8.31311,"population":9879},{"name":"Prikro","ascii":"Prikro","alternates":["Pirikrou","Priko","Prikrou"],"lat":7.64705,"lng":-3.99626,"population":9839},{"name":"Lokbonoun","ascii":"Lokbonoun","alternates":[],"lat":8.06667,"lng":-5.26667,"population":9780},{"name":"Sago","ascii":"Sago","alternates":["Sagbe","Sagbé"],"lat":5.267,"lng":-5.91611,"population":9775},{"name":"Wagana","ascii":"Wagana","alternates":[],"lat":5.58147,"lng":-5.36776,"population":9753},{"name":"Dahira","ascii":"Dahira","alternates":[],"lat":6.54137,"lng":-6.32131,"population":9699},{"name":"Tiéningboué","ascii":"Tieningboue","alternates":["Tienigbe","Tieningbue","Tiénigbé","Tiéningbué"],"lat":8.17838,"lng":-5.72147,"population":9692},{"name":"Tiébiéssou","ascii":"Tiebiessou","alternates":["Teviessou","Téviéssou"],"lat":5.3525,"lng":-4.89056,"population":9657},{"name":"Zoukouboué","ascii":"Zoukouboue","alternates":[],"lat":7.1112,"lng":-6.78102,"population":9652},{"name":"Attinguié","ascii":"Attinguie","alternates":["Atidje","Atidjé","Atigueky","Atiguie","Atiguié","Atiguéky"],"lat":6.06445,"lng":-4.5485,"population":9587},{"name":"Lopou","ascii":"Lopou","alternates":["Lopu"],"lat":5.42176,"lng":-4.46967,"population":9587},{"name":"Kanébly","ascii":"Kanebly","alternates":["Kanebli","Kanébli"],"lat":7.48122,"lng":-7.03262,"population":9547},{"name":"Bécédi","ascii":"Becedi","alternates":["Bekedi","Bessedi","Békédi"],"lat":5.64167,"lng":-4.58216,"population":9546},{"name":"Zangué","ascii":"Zangue","alternates":["Zanguie","Zanguié"],"lat":6.43055,"lng":-5.35551,"population":9538},{"name":"Brouafla-nattis","ascii":"Brouafla-nattis","alternates":["Brouafla"],"lat":7.59623,"lng":-6.51838,"population":9529},{"name":"Blaguiéhi","ascii":"Blaguiehi","alternates":[],"lat":6.95799,"lng":-7.66503,"population":9525},{"name":"Nanandy","ascii":"Nanandy","alternates":["Namandi","Namandy","Nanandi"],"lat":6.7425,"lng":-7.1698,"population":9503},{"name":"Blodi","ascii":"Blodi","alternates":["Blody"],"lat":6.79396,"lng":-7.2972,"population":9494},{"name":"Diassa","ascii":"Diassa","alternates":[],"lat":6.41587,"lng":-6.69652,"population":9486},{"name":"Sikensi","ascii":"Sikensi","alternates":["Sikinssi","Sitensi"],"lat":5.66829,"lng":-4.57371,"population":9473},{"name":"Tonla","ascii":"Tonla","alternates":[],"lat":6.35395,"lng":-5.644,"population":9463},{"name":"Attinguié","ascii":"Attinguie","alternates":["Afindje","Afindjé","Alinguie","Alinguié","Atingue","Atingué","Attingue","Attingué"],"lat":5.46739,"lng":-4.18549,"population":9455},{"name":"Djigbagui","ascii":"Djigbagui","alternates":[],"lat":5.61444,"lng":-6.87374,"population":9413},{"name":"Bakayo","ascii":"Bakayo","alternates":[],"lat":5.53272,"lng":-6.04418,"population":9394},{"name":"Boli","ascii":"Boli","alternates":[],"lat":7.22648,"lng":-4.80666,"population":9386},{"name":"Baonfla","ascii":"Baonfla","alternates":[],"lat":6.83328,"lng":-5.49849,"population":9363},{"name":"Guitrozon","ascii":"Guitrozon","alternates":["Guitrouzon"],"lat":6.75012,"lng":-7.3714,"population":9336},{"name":"Takoréagui","ascii":"Takoreagui","alternates":[],"lat":5.75692,"lng":-6.79092,"population":9312},{"name":"Bakanou A","ascii":"Bakanou A","alternates":[],"lat":5.59411,"lng":-4.63455,"population":9310},{"name":"Gnagboya","ascii":"Gnagboya","alternates":[],"lat":6.07877,"lng":-6.93104,"population":9279},{"name":"Bably","ascii":"Bably","alternates":["Babli"],"lat":7.02553,"lng":-7.87339,"population":9271},{"name":"Amoriakro","ascii":"Amoriakro","alternates":["Ameliakro","Ameliakrou","Améliakro","Améliakrou"],"lat":7.09941,"lng":-3.52821,"population":9203},{"name":"Katiali","ascii":"Katiali","alternates":["Katiafi","Katyali"],"lat":9.82268,"lng":-5.93381,"population":9193},{"name":"Assaie-kouassikro","ascii":"Assaie-kouassikro","alternates":["Kouassikouro"],"lat":6.96509,"lng":-3.90343,"population":9180},{"name":"Sagboya","ascii":"Sagboya","alternates":[],"lat":5.96571,"lng":-6.91331,"population":9167},{"name":"Didoko","ascii":"Didoko","alternates":["Didokro"],"lat":6.02111,"lng":-5.31207,"population":9166},{"name":"Yacoéoua","ascii":"Yacoeoua","alternates":["Yakoeoua","Yakoéoua"],"lat":5.97747,"lng":-6.48762,"population":9164},{"name":"Zaadi","ascii":"Zaadi","alternates":[],"lat":6.33317,"lng":-5.73659,"population":9158},{"name":"Kohourou","ascii":"Kohourou","alternates":[],"lat":5.47964,"lng":-3.32856,"population":9122},{"name":"Kpotè","ascii":"Kpote","alternates":[],"lat":4.87116,"lng":-6.53403,"population":9122},{"name":"Poumbly","ascii":"Poumbly","alternates":["Poumbli"],"lat":7.359,"lng":-7.20527,"population":9106},{"name":"Tongouolan","ascii":"Tongouolan","alternates":["Tenguelan","Tenguélan"],"lat":7.16499,"lng":-3.30552,"population":9102},{"name":"Brizéboua","ascii":"Brizeboua","alternates":[],"lat":7.00954,"lng":-6.46905,"population":9070},{"name":"Nakara","ascii":"Nakara","alternates":["Nakaraga"],"lat":8.25783,"lng":-5.63704,"population":9063},{"name":"Tombokro","ascii":"Tombokro","alternates":["Tombo","Toumbo","Toumbokro"],"lat":6.92669,"lng":-5.49965,"population":9041},{"name":"Troya","ascii":"Troya","alternates":[],"lat":6.25218,"lng":-7.49524,"population":9014},{"name":"Fiassé","ascii":"Fiasse","alternates":[],"lat":6.16357,"lng":-3.63625,"population":9005},{"name":"Brihi","ascii":"Brihi","alternates":[],"lat":6.45027,"lng":-5.91893,"population":8996},{"name":"Petit Badien","ascii":"Petit Badien","alternates":[],"lat":5.2567,"lng":-4.63988,"population":8987},{"name":"Dialakoro","ascii":"Dialakoro","alternates":["Dialakono","Dyarako"],"lat":8.1921,"lng":-5.8429,"population":8979},{"name":"Sérihio","ascii":"Serihio","alternates":["Senihio","Seriyo","Seryo","Sériyo","Séryo"],"lat":5.90051,"lng":-6.11755,"population":8978},{"name":"Ouyabli","ascii":"Ouyabli","alternates":[],"lat":7.32723,"lng":-7.20838,"population":8971},{"name":"Amian","ascii":"Amian","alternates":[],"lat":6.46745,"lng":-3.64043,"population":8958},{"name":"Broukro","ascii":"Broukro","alternates":[],"lat":6.6464,"lng":-4.22305,"population":8954},{"name":"Loviguié I","ascii":"Loviguie I","alternates":["Lovidje","Lovidjé","Loviguie","Loviguie Un","Loviguié","Loviguié Un","Lovouiguie","Lowigue","Lowigué"],"lat":5.80761,"lng":-4.33836,"population":8952},{"name":"Ouaninou","ascii":"Ouaninou","alternates":["Waninou"],"lat":8.2379,"lng":-7.86638,"population":8943},{"name":"Garango","ascii":"Garango","alternates":[],"lat":6.96301,"lng":-5.80875,"population":8905},{"name":"Bounta","ascii":"Bounta","alternates":["Bounda"],"lat":7.64675,"lng":-7.95915,"population":8890},{"name":"Kaadé","ascii":"Kaade","alternates":[],"lat":6.56928,"lng":-7.71427,"population":8883},{"name":"Koziayo II","ascii":"Koziayo II","alternates":[],"lat":5.92426,"lng":-6.34379,"population":8871},{"name":"Minignan","ascii":"Minignan","alternates":["Maniniam","Maninian"],"lat":9.99744,"lng":-7.83593,"population":8855},{"name":"Nagadoukou","ascii":"Nagadoukou","alternates":[],"lat":6.42583,"lng":-5.78126,"population":8835},{"name":"Toulépleu","ascii":"Toulepleu","alternates":["Toulobli"],"lat":6.57974,"lng":-8.41091,"population":8794},{"name":"Kotobi","ascii":"Kotobi","alternates":["Kotobi Akpaoussou"],"lat":6.69569,"lng":-4.12892,"population":8768},{"name":"Ziplignan","ascii":"Ziplignan","alternates":[],"lat":6.44853,"lng":-5.84019,"population":8750},{"name":"Kanoroba","ascii":"Kanoroba","alternates":["Kannorhoba","Kanoho"],"lat":9.11088,"lng":-6.12238,"population":8735},{"name":"Madinani","ascii":"Madinani","alternates":[],"lat":9.61083,"lng":-6.94215,"population":8698},{"name":"Loua","ascii":"Loua","alternates":["Louha"],"lat":6.43822,"lng":-5.60554,"population":8694},{"name":"Kako","ascii":"Kako","alternates":[],"lat":4.77572,"lng":-7.01707,"population":8690},{"name":"Vaafla","ascii":"Vaafla","alternates":[],"lat":7.41806,"lng":-6.64861,"population":8677},{"name":"Koulaéoué","ascii":"Koulaeoue","alternates":[],"lat":7.04434,"lng":-7.88591,"population":8651},{"name":"Doumbiadougou","ascii":"Doumbiadougou","alternates":[],"lat":6.60253,"lng":-7.31889,"population":8595},{"name":"Aféré","ascii":"Afere","alternates":["Affere","Afféré"],"lat":6.90283,"lng":-4.08374,"population":8590},{"name":"Moapé","ascii":"Moape","alternates":["N'Gadie","N’Gadié"],"lat":6.18888,"lng":-3.80369,"population":8580},{"name":"Affalikro","ascii":"Affalikro","alternates":[],"lat":6.64548,"lng":-3.38381,"population":8575},{"name":"Bandiay","ascii":"Bandiay","alternates":["Bendiai","Biandai"],"lat":7.2,"lng":-6.18333,"population":8575},{"name":"Kpada","ascii":"Kpada","alternates":[],"lat":5.77996,"lng":-6.48509,"population":8551},{"name":"Sononzo","ascii":"Sononzo","alternates":["Sononosso","Sonozo"],"lat":8.62639,"lng":-6.13,"population":8551},{"name":"Zohoa","ascii":"Zohoa","alternates":[],"lat":6.32387,"lng":-6.15829,"population":8547},{"name":"Yapleu","ascii":"Yapleu","alternates":["Iapleu"],"lat":7.09056,"lng":-7.71028,"population":8519},{"name":"Diby","ascii":"Diby","alternates":["Dibi"],"lat":5.65774,"lng":-2.97845,"population":8516},{"name":"Affiénou","ascii":"Affienou","alternates":["Afienou","Afiénou"],"lat":5.41118,"lng":-2.92478,"population":8502},{"name":"Moussayo","ascii":"Moussayo","alternates":[],"lat":5.98952,"lng":-6.43714,"population":8493},{"name":"Kodaya","ascii":"Kodaya","alternates":[],"lat":5.99517,"lng":-6.97259,"population":8481},{"name":"Ouellé","ascii":"Ouelle","alternates":["Welle"],"lat":7.29611,"lng":-4.01364,"population":8481},{"name":"Trawaininkro","ascii":"Trawaininkro","alternates":[],"lat":6.06286,"lng":-6.88054,"population":8472},{"name":"Pauli-Brousse","ascii":"Pauli-Brousse","alternates":[],"lat":4.96289,"lng":-6.18983,"population":8464},{"name":"Soko","ascii":"Soko","alternates":[],"lat":7.99173,"lng":-2.74435,"population":8427},{"name":"Gloplou","ascii":"Gloplou","alternates":[],"lat":7.11261,"lng":-7.35152,"population":8418},{"name":"Grégbeu","ascii":"Gregbeu","alternates":["Gregbe"],"lat":6.80685,"lng":-6.71716,"population":8385},{"name":"Wonséaly","ascii":"Wonsealy","alternates":[],"lat":6.17149,"lng":-7.03729,"population":8381},{"name":"Duférébo","ascii":"Duferebo","alternates":["Duffrebo","Duffrèbo"],"lat":7.08976,"lng":-3.44624,"population":8361},{"name":"Gonié-Tahouaké","ascii":"Gonie-Tahouake","alternates":[],"lat":7.13159,"lng":-7.29997,"population":8333},{"name":"Samo","ascii":"Samo","alternates":[],"lat":5.284,"lng":-3.51785,"population":8327},{"name":"Kadéko","ascii":"Kadeko","alternates":[],"lat":6.09846,"lng":-5.58439,"population":8283},{"name":"Akridou","ascii":"Akridou","alternates":["Akridu"],"lat":5.62668,"lng":-5.60681,"population":8274},{"name":"Tiékou-Carrefour","ascii":"Tiekou-Carrefour","alternates":[],"lat":6.35872,"lng":-4.28598,"population":8265},{"name":"Tabo","ascii":"Tabo","alternates":["Taabo"],"lat":6.2361,"lng":-5.13745,"population":8260},{"name":"Dougodou","ascii":"Dougodou","alternates":[],"lat":5.30101,"lng":-5.35141,"population":8253},{"name":"Assangbadji","ascii":"Assangbadji","alternates":[],"lat":6.40782,"lng":-3.87669,"population":8240},{"name":"Godélilié","ascii":"Godelilie","alternates":[],"lat":6.0456,"lng":-5.84345,"population":8174},{"name":"Tié-Iné","ascii":"Tie-Ine","alternates":[],"lat":6.90141,"lng":-7.59785,"population":8169},{"name":"Sapli","ascii":"Sapli","alternates":[],"lat":8.14477,"lng":-2.98627,"population":8164},{"name":"Kregbé","ascii":"Kregbe","alternates":["Keregbe","Kéregbé"],"lat":6.97249,"lng":-3.98416,"population":8138},{"name":"Tiéme","ascii":"Tieme","alternates":["Tyeme","Tyémé"],"lat":9.54452,"lng":-7.31778,"population":8123},{"name":"Kong","ascii":"Kong","alternates":[],"lat":6.11391,"lng":-3.64849,"population":8103},{"name":"Liliyo","ascii":"Liliyo","alternates":[],"lat":5.99473,"lng":-6.3573,"population":8086},{"name":"Djélisso","ascii":"Djelisso","alternates":[],"lat":10.19489,"lng":-5.39097,"population":8076},{"name":"N’deou","ascii":"N'deou","alternates":["Dyeo","Dyéo","Ndieou","Ndiéou"],"lat":9.97,"lng":-6.61823,"population":8073},{"name":"Namane","ascii":"Namane","alternates":[],"lat":6.42177,"lng":-6.68203,"population":8064},{"name":"Bouoissué","ascii":"Bouoissue","alternates":["Akabovvosue","Akabovvosué","Akoboissue","Akoboissué"],"lat":6.96348,"lng":-3.2324,"population":8044},{"name":"Diapé","ascii":"Diape","alternates":[],"lat":6.0142,"lng":-3.92726,"population":8029},{"name":"N'Douffoukankro","ascii":"N'Douffoukankro","alternates":[],"lat":6.8616,"lng":-5.82098,"population":8025},{"name":"Kouassi-Datékro","ascii":"Kouassi-Datekro","alternates":[],"lat":7.8175,"lng":-3.52556,"population":7965},{"name":"Gbeya","ascii":"Gbeya","alternates":["Goueya","Gouéya"],"lat":10.31053,"lng":-6.93507,"population":7960},{"name":"Kodioussou","ascii":"Kodioussou","alternates":["Kodiossou"],"lat":5.77116,"lng":-3.75595,"population":7958},{"name":"Négbatchi","ascii":"Negbatchi","alternates":[],"lat":4.89972,"lng":-7.46838,"population":7958},{"name":"Boron","ascii":"Boron","alternates":[],"lat":8.69445,"lng":-5.96906,"population":7952},{"name":"Zékrézinssou","ascii":"Zekrezinssou","alternates":["Kriessou","Zekezinssou","Zékézinssou"],"lat":7.07158,"lng":-4.28036,"population":7952},{"name":"Bohinou","ascii":"Bohinou","alternates":["Bobinou","Boinou"],"lat":7.17337,"lng":-6.83116,"population":7938},{"name":"Memni","ascii":"Memni","alternates":["M'emm","M’emm"],"lat":5.51121,"lng":-3.73995,"population":7924},{"name":"Déma","ascii":"Dema","alternates":[],"lat":7.30833,"lng":-6.48194,"population":7920},{"name":"Dania","ascii":"Dania","alternates":["Damafla","Daniafla"],"lat":7.15082,"lng":-6.84125,"population":7908},{"name":"Adaou","ascii":"Adaou","alternates":[],"lat":5.42783,"lng":-3.26443,"population":7898},{"name":"Dédifla","ascii":"Dedifla","alternates":["Dediafla","Dedyafla","Dédiafla","Dédyafla"],"lat":7.2851,"lng":-6.58711,"population":7881},{"name":"Bagouri","ascii":"Bagouri","alternates":[],"lat":7.12992,"lng":-6.81457,"population":7858},{"name":"Tézié","ascii":"Tezie","alternates":[],"lat":6.3875,"lng":-6.3025,"population":7849},{"name":"Sran-Bélakro","ascii":"Sran-Belakro","alternates":[],"lat":7.35138,"lng":-5.59067,"population":7847},{"name":"Raviart","ascii":"Raviart","alternates":["Raviar"],"lat":7.40422,"lng":-4.88668,"population":7838},{"name":"Agou","ascii":"Agou","alternates":[],"lat":5.98289,"lng":-3.94393,"population":7823},{"name":"Manoufla","ascii":"Manoufla","alternates":[],"lat":6.6195,"lng":-5.62714,"population":7818},{"name":"Goudouko","ascii":"Goudouko","alternates":[],"lat":5.73666,"lng":-5.61581,"population":7811},{"name":"Zabré","ascii":"Zabre","alternates":["Zaebre","Zahebre","Zahébré","Zaébré"],"lat":5.31012,"lng":-6.27536,"population":7807},{"name":"Magnéry","ascii":"Magnery","alternates":[],"lat":4.94007,"lng":-6.92193,"population":7805},{"name":"Koulouan","ascii":"Koulouan","alternates":[],"lat":6.95309,"lng":-7.69888,"population":7785},{"name":"Krinjabo","ascii":"Krinjabo","alternates":["Krindjabo"],"lat":5.39733,"lng":-3.21357,"population":7780},{"name":"Grand Morié","ascii":"Grand Morie","alternates":["Grand - Morie","Grand - Morié","Morie","Morié"],"lat":5.98312,"lng":-4.13537,"population":7766},{"name":"Alosso-II","ascii":"Alosso-II","alternates":[],"lat":5.56437,"lng":-3.50035,"population":7758},{"name":"Darakokaha","ascii":"Darakokaha","alternates":["Darakolonaougou","Darakolondougeu","Darakolondougou","Darakolondugu"],"lat":8.28921,"lng":-5.15868,"population":7733},{"name":"Guinkin","ascii":"Guinkin","alternates":[],"lat":6.5667,"lng":-7.72277,"population":7731},{"name":"Néro","ascii":"Nero","alternates":[],"lat":4.50817,"lng":-7.5212,"population":7724},{"name":"Faraba","ascii":"Faraba","alternates":[],"lat":8.65459,"lng":-6.252,"population":7692},{"name":"Taï","ascii":"Tai","alternates":[],"lat":5.87366,"lng":-7.45519,"population":7670},{"name":"Sanhoukro","ascii":"Sanhoukro","alternates":[],"lat":5.78499,"lng":-3.12968,"population":7668},{"name":"Boudépé","ascii":"Boudepe","alternates":[],"lat":5.98392,"lng":-3.98698,"population":7662},{"name":"Kéibly","ascii":"Keibly","alternates":[],"lat":5.99636,"lng":-7.4726,"population":7654},{"name":"Cfi-Baroko","ascii":"Cfi-Baroko","alternates":[],"lat":5.72051,"lng":-5.17192,"population":7650},{"name":"Napié","ascii":"Napie","alternates":["Gbanlele","Gbanlélé","Gbombele-Kaha","Gbombélé-Kaha","Napieoledougou","Napiéolédougou"],"lat":9.28868,"lng":-5.58324,"population":7627},{"name":"Assaoufoué","ascii":"Assaoufoue","alternates":[],"lat":6.57675,"lng":-4.22405,"population":7624},{"name":"Anoumaba","ascii":"Anoumaba","alternates":["Anumaba"],"lat":6.33735,"lng":-4.51626,"population":7623},{"name":"Appouasso","ascii":"Appouasso","alternates":["Apouassa"],"lat":5.96305,"lng":-3.17605,"population":7622},{"name":"Ellibou","ascii":"Ellibou","alternates":[],"lat":5.6882,"lng":-4.51,"population":7615},{"name":"Anno","ascii":"Anno","alternates":["Ano"],"lat":5.85952,"lng":-4.37902,"population":7593},{"name":"Nambézaria","ascii":"Nambezaria","alternates":["Niambezaria","Niambézaria"],"lat":5.65,"lng":-5.75,"population":7569},{"name":"Siakakro","ascii":"Siakakro","alternates":[],"lat":6.91244,"lng":-3.24469,"population":7566},{"name":"Labodougou","ascii":"Labodougou","alternates":[],"lat":5.71433,"lng":-5.41263,"population":7563},{"name":"Oress-Krobou","ascii":"Oress-Krobou","alternates":["Ores-Krobou","Oress Krobous","Orès-Krobou"],"lat":5.7324,"lng":-4.3947,"population":7526},{"name":"Mayakoffikro","ascii":"Mayakoffikro","alternates":[],"lat":6.27502,"lng":-6.99623,"population":7523},{"name":"Assouba","ascii":"Assouba","alternates":[],"lat":5.45956,"lng":-3.25653,"population":7521},{"name":"Agbossou","ascii":"Agbossou","alternates":[],"lat":6.86144,"lng":-4.0816,"population":7488},{"name":"Gnipi","ascii":"Gnipi","alternates":[],"lat":5.66876,"lng":-6.64374,"population":7478},{"name":"Ledjean","ascii":"Ledjean","alternates":[],"lat":6.92867,"lng":-7.10539,"population":7462},{"name":"Pakouabo","ascii":"Pakouabo","alternates":[],"lat":7.15724,"lng":-5.7925,"population":7443},{"name":"Brozan","ascii":"Brozan","alternates":[],"lat":6.39873,"lng":-5.50306,"population":7427},{"name":"Kazéribéri","ascii":"Kazeriberi","alternates":[],"lat":5.63899,"lng":-5.61016,"population":7413},{"name":"Karié","ascii":"Karie","alternates":[],"lat":5.437,"lng":-7.33944,"population":7412},{"name":"Talléré","ascii":"Tallere","alternates":["Tanele","Tanelé"],"lat":9.20084,"lng":-6.14807,"population":7411},{"name":"Latokaha","ascii":"Latokaha","alternates":["Lalo"],"lat":8.62257,"lng":-5.38733,"population":7405},{"name":"Sipilou","ascii":"Sipilou","alternates":["Siguita","Siquita"],"lat":7.8645,"lng":-8.10143,"population":7395},{"name":"Mborou","ascii":"Mborou","alternates":["Mbrou"],"lat":5.59474,"lng":-4.36334,"population":7388},{"name":"Lataha","ascii":"Lataha","alternates":["Lahata"],"lat":9.56724,"lng":-5.59098,"population":7379},{"name":"Booda","ascii":"Booda","alternates":["Bonda"],"lat":6.36075,"lng":-5.68817,"population":7351},{"name":"Kanzra","ascii":"Kanzra","alternates":["Kranzra"],"lat":7.32282,"lng":-6.22237,"population":7347},{"name":"Assinie-Mafia","ascii":"Assinie-Mafia","alternates":["Assine","Assini","Assinie","Mafia"],"lat":5.13384,"lng":-3.29096,"population":7338},{"name":"Zouhounou","ascii":"Zouhounou","alternates":["Zougounou","Zoungounou","Zugunu"],"lat":6.61217,"lng":-3.29229,"population":7304},{"name":"Bobi","ascii":"Bobi","alternates":["Boby"],"lat":8.16144,"lng":-6.55006,"population":7299},{"name":"Ayénoua","ascii":"Ayenoua","alternates":["Ayenouan","Ayénouan"],"lat":5.36681,"lng":-3.31774,"population":7293},{"name":"Gbéhigbly","ascii":"Gbehigbly","alternates":[],"lat":7.25591,"lng":-7.05965,"population":7285},{"name":"Tayo","ascii":"Tayo","alternates":[],"lat":5.66667,"lng":-6.35,"population":7285},{"name":"Zanfouénou","ascii":"Zanfouenou","alternates":[],"lat":6.70516,"lng":-4.10607,"population":7281},{"name":"Iboguhé","ascii":"Iboguhe","alternates":["Ibogue","Ibogué","yi bo gu ai","伊博古埃"],"lat":6.5481,"lng":-6.84419,"population":7280},{"name":"Nidrou","ascii":"Nidrou","alternates":[],"lat":6.90202,"lng":-7.18141,"population":7280},{"name":"Bangoua","ascii":"Bangoua","alternates":["Bongoua"],"lat":7.33542,"lng":-3.47303,"population":7259},{"name":"Sucaf Ci Village","ascii":"Sucaf Ci Village","alternates":[],"lat":9.29837,"lng":-5.29325,"population":7252},{"name":"Wora","ascii":"Wora","alternates":["Ouora"],"lat":10.08407,"lng":-6.32683,"population":7217},{"name":"Akradio","ascii":"Akradio","alternates":["Aonediou","Aonédiou"],"lat":5.43719,"lng":-4.36353,"population":7198},{"name":"Gbalébouo","ascii":"Gbalebouo","alternates":[],"lat":5.73699,"lng":-6.34582,"population":7184},{"name":"Bolona","ascii":"Bolona","alternates":[],"lat":10.29666,"lng":-6.43756,"population":7169},{"name":"Biasso","ascii":"Biasso","alternates":["Diasso"],"lat":6.11151,"lng":-3.78657,"population":7160},{"name":"Blésségue","ascii":"Blessegue","alternates":["Blessegui","Blessigue","Blessique","Blességui","Bléssigué"],"lat":10.19833,"lng":-6.40778,"population":7160},{"name":"Koyékro","ascii":"Koyekro","alternates":["Kayekro","Kayékro"],"lat":6.15253,"lng":-4.74567,"population":7138},{"name":"Mahra","ascii":"Mahra","alternates":[],"lat":8.67927,"lng":-5.97627,"population":7132},{"name":"Abradine","ascii":"Abradine","alternates":[],"lat":6.19975,"lng":-3.61125,"population":7127},{"name":"Koun-Fao","ascii":"Koun-Fao","alternates":["Akun","Koun"],"lat":7.48764,"lng":-3.25249,"population":7114},{"name":"Kounahiri","ascii":"Kounahiri","alternates":["Koumahiri","Kounairi","Kounaïri","Kunairi"],"lat":7.79089,"lng":-5.83477,"population":7107},{"name":"Montézo","ascii":"Montezo","alternates":["Motezo","Motézo"],"lat":5.48556,"lng":-3.74027,"population":7107},{"name":"Apprompron","ascii":"Apprompron","alternates":["Apromprom","Aprompron","Aprompronou"],"lat":6.29219,"lng":-3.31526,"population":7102},{"name":"Diamarakro","ascii":"Diamarakro","alternates":["Dambarakro","Diambala","Diambarakrou","Diambarakru"],"lat":6.23681,"lng":-3.32006,"population":7102},{"name":"Doké","ascii":"Doke","alternates":["Dokin"],"lat":6.59281,"lng":-8.11205,"population":7102},{"name":"Ziéagui","ascii":"Zieagui","alternates":[],"lat":5.56399,"lng":-6.90694,"population":7086},{"name":"Diangbanasso","ascii":"Diangbanasso","alternates":[],"lat":9.08161,"lng":-4.6415,"population":7080},{"name":"Laouda","ascii":"Laouda","alternates":["Lahouda","Lauda"],"lat":6.20829,"lng":-5.70204,"population":7070},{"name":"Ouandérama-Dioulasso","ascii":"Ouanderama-Dioulasso","alternates":["Ouandarama","Wandarama","Wanderama","Wandérama"],"lat":8.65,"lng":-4.4,"population":7042},{"name":"Wanéwa","ascii":"Wanewa","alternates":[],"lat":5.82369,"lng":-6.11183,"population":7036},{"name":"Blapleu","ascii":"Blapleu","alternates":["Bafleso","Bafléso","Bapleu","Blafleso","Blafléso"],"lat":7.63918,"lng":-7.73705,"population":7026},{"name":"Tyonlé","ascii":"Tyonle","alternates":["Tiole","Tiolé","Tionle","Tionlé","Toucle","Touclé"],"lat":7.0564,"lng":-7.66649,"population":7009},{"name":"Kagnénako","ascii":"Kagnenako","alternates":[],"lat":5.81191,"lng":-6.349,"population":7007},{"name":"Dairo","ascii":"Dairo","alternates":["Daro"],"lat":5.66059,"lng":-5.47393,"population":7005},{"name":"Nzodji","ascii":"Nzodji","alternates":["Dzeudji","N'Zodghi","N’Zodghi"],"lat":5.59375,"lng":-3.85083,"population":7000},{"name":"Tankéssi","ascii":"Tankessi","alternates":["Tan-Kiessi","Tankasse","Tankassi","Tankesi","Tankesse","Tankessé","Tankési"],"lat":7.34908,"lng":-3.20347,"population":6983},{"name":"Toumanguié","ascii":"Toumanguie","alternates":[],"lat":5.32703,"lng":-3.32374,"population":6978},{"name":"Tagadi","ascii":"Tagadi","alternates":[],"lat":8.63154,"lng":-2.62515,"population":6975},{"name":"Nougoua","ascii":"Nougoua","alternates":["Nugua"],"lat":5.34177,"lng":-2.77659,"population":6974},{"name":"Dianoufla","ascii":"Dianoufla","alternates":["Dianou"],"lat":6.79928,"lng":-6.01422,"population":6971},{"name":"Nouvel-Ousrou","ascii":"Nouvel-Ousrou","alternates":[],"lat":5.41101,"lng":-4.51335,"population":6967},{"name":"Ebikro-Ndakro","ascii":"Ebikro-Ndakro","alternates":["Ebikro","Ebikrou"],"lat":5.725,"lng":-3.11099,"population":6966},{"name":"Chiépo","ascii":"Chiepo","alternates":["Tiepo"],"lat":5.69519,"lng":-5.06251,"population":6963},{"name":"Zépréguhé","ascii":"Zepreguhe","alternates":[],"lat":6.90617,"lng":-6.3704,"population":6963},{"name":"Tinhou","ascii":"Tinhou","alternates":[],"lat":6.43832,"lng":-8.1561,"population":6961},{"name":"Amani","ascii":"Amani","alternates":[],"lat":5.69753,"lng":-4.72254,"population":6957},{"name":"Niorouhio","ascii":"Niorouhio","alternates":[],"lat":5.76837,"lng":-6.12006,"population":6935},{"name":"Benhuafla","ascii":"Benhuafla","alternates":[],"lat":6.59526,"lng":-5.87943,"population":6926},{"name":"Koudougou","ascii":"Koudougou","alternates":[],"lat":6.93528,"lng":-5.6663,"population":6924},{"name":"Lobozoa","ascii":"Lobozoa","alternates":[],"lat":6.21819,"lng":-6.95554,"population":6923},{"name":"Diacohou-Sud","ascii":"Diacohou-Sud","alternates":[],"lat":6.78794,"lng":-5.87103,"population":6900},{"name":"San","ascii":"San","alternates":[],"lat":10.3905,"lng":-6.43582,"population":6896},{"name":"Maminigui","ascii":"Maminigui","alternates":["Mamnigui"],"lat":7.40183,"lng":-5.84077,"population":6895},{"name":"Lalogo","ascii":"Lalogo","alternates":["Lalougou"],"lat":8.83327,"lng":-6.3566,"population":6893},{"name":"Bricolo","ascii":"Bricolo","alternates":[],"lat":5.78502,"lng":-6.45205,"population":6891},{"name":"Kosso","ascii":"Kosso","alternates":[],"lat":5.04973,"lng":-5.77883,"population":6887},{"name":"Santa","ascii":"Santa","alternates":[],"lat":7.66389,"lng":-7.84778,"population":6874},{"name":"Kodiébouman","ascii":"Kodiebouman","alternates":["Kondiebouma","Kondiebouman","Kondiébouma","Kondiébouman"],"lat":6.22107,"lng":-4.54056,"population":6871},{"name":"Léléblé","ascii":"Leleble","alternates":["Lelebore","Lelebovy","Letebore","Léléboré","Lélébovy","Létéboré"],"lat":6.23311,"lng":-5.22341,"population":6870},{"name":"Zaodrou","ascii":"Zaodrou","alternates":[],"lat":7.15835,"lng":-7.1848,"population":6865},{"name":"Toazéo","ascii":"Toazeo","alternates":[],"lat":6.79943,"lng":-7.32988,"population":6841},{"name":"Benzra","ascii":"Benzra","alternates":["Binzra"],"lat":7.32774,"lng":-6.00849,"population":6840},{"name":"Abronambué","ascii":"Abronambue","alternates":["Abrounamoue","Abrounamoué","Abrunamue","Ebrianamoe","Ebrianamoé","Ebrinamoe","Ebrinamoue","Ebrinamoué","Ebrinamoé"],"lat":6.75611,"lng":-3.34139,"population":6836},{"name":"Gangbapleu","ascii":"Gangbapleu","alternates":[],"lat":7.74878,"lng":-7.89301,"population":6803},{"name":"Mougnini","ascii":"Mougnini","alternates":[],"lat":10.01405,"lng":-6.67064,"population":6800},{"name":"Sahuyé","ascii":"Sahuye","alternates":[],"lat":5.73253,"lng":-4.52683,"population":6796},{"name":"Zikisso","ascii":"Zikisso","alternates":["Zikiso"],"lat":6.06396,"lng":-5.70245,"population":6791},{"name":"Huafla","ascii":"Huafla","alternates":[],"lat":6.56368,"lng":-5.79967,"population":6782},{"name":"Gouméré","ascii":"Goumere","alternates":["Gombele","Gombélé"],"lat":7.8963,"lng":-2.98013,"population":6778},{"name":"Bléanianda","ascii":"Bleanianda","alternates":[],"lat":6.3072,"lng":-5.70499,"population":6768},{"name":"Gribouo","ascii":"Gribouo","alternates":[],"lat":6.19511,"lng":-6.9132,"population":6760},{"name":"Guiembé","ascii":"Guiembe","alternates":["Giembe","Guienbe","Guienbé","Tyebe","Tyèbè"],"lat":9.23298,"lng":-5.71277,"population":6751},{"name":"Tanbi","ascii":"Tanbi","alternates":["Tambi"],"lat":8.23343,"lng":-2.57362,"population":6748},{"name":"Grand Alépé","ascii":"Grand Alepe","alternates":[],"lat":5.47503,"lng":-3.76424,"population":6718},{"name":"Kossonoukro","ascii":"Kossonoukro","alternates":[],"lat":6.0107,"lng":-3.38927,"population":6717},{"name":"Gaouroubré","ascii":"Gaouroubre","alternates":["Gaouloubre","Gaouloubré"],"lat":5.28057,"lng":-6.24612,"population":6713},{"name":"Boguédia","ascii":"Boguedia","alternates":[],"lat":6.63434,"lng":-6.51915,"population":6711},{"name":"Kpouébo","ascii":"Kpouebo","alternates":[],"lat":6.33441,"lng":-4.85618,"population":6709},{"name":"Séliéguhé","ascii":"Selieguhe","alternates":[],"lat":6.62265,"lng":-6.86803,"population":6708},{"name":"Nafoungolo","ascii":"Nafoungolo","alternates":[],"lat":10.31364,"lng":-5.44754,"population":6700},{"name":"Ndjemin","ascii":"Ndjemin","alternates":["Ndyeni","Ndyéni"],"lat":5.27031,"lng":-4.23875,"population":6695},{"name":"Ono Salci","ascii":"Ono Salci","alternates":[],"lat":5.38138,"lng":-3.5655,"population":6695},{"name":"Adébem","ascii":"Adebem","alternates":["Adebem-Kagberi","Adobou I","Adébem-Kagbéri"],"lat":5.47349,"lng":-5.83667,"population":6682},{"name":"Gan","ascii":"Gan","alternates":["Ganleu"],"lat":7.06596,"lng":-7.89385,"population":6677},{"name":"Béablo","ascii":"Beablo","alternates":[],"lat":6.37887,"lng":-7.33397,"population":6663},{"name":"Nonouan","ascii":"Nonouan","alternates":[],"lat":5.023,"lng":-6.37198,"population":6652},{"name":"Domobly","ascii":"Domobly","alternates":[],"lat":6.5321,"lng":-7.57411,"population":6647},{"name":"Baglo","ascii":"Baglo","alternates":[],"lat":6.37166,"lng":-7.1439,"population":6607},{"name":"Djidoubaye","ascii":"Djidoubaye","alternates":["Djidobaye"],"lat":6.08567,"lng":-7.48642,"population":6600},{"name":"Diangobo","ascii":"Diangobo","alternates":[],"lat":6.56564,"lng":-3.33675,"population":6599},{"name":"Glanié","ascii":"Glanie","alternates":["Glanle","Glanlé","Glante"],"lat":7.75948,"lng":-8.0813,"population":6581},{"name":"Blédi Diéya","ascii":"Bledi Dieya","alternates":[],"lat":6.58627,"lng":-8.06722,"population":6580},{"name":"Dahili","ascii":"Dahili","alternates":[],"lat":5.50267,"lng":-6.78421,"population":6580},{"name":"Kodjina","ascii":"Kodjina","alternates":["Kodiene","Koguina"],"lat":6.73543,"lng":-3.59696,"population":6545},{"name":"Satikran","ascii":"Satikran","alternates":["Sadikran"],"lat":6.82699,"lng":-3.74318,"population":6532},{"name":"Bébou","ascii":"Bebou","alternates":[],"lat":6.3617,"lng":-3.41275,"population":6526},{"name":"Yokoboué","ascii":"Yokoboue","alternates":["Yocoboue","Yocoboué"],"lat":5.26933,"lng":-5.10658,"population":6520},{"name":"Assié Akpessé","ascii":"Assie Akpesse","alternates":["Assie","Assié"],"lat":6.46539,"lng":-4.33607,"population":6514},{"name":"Gloleu","ascii":"Gloleu","alternates":[],"lat":7.12901,"lng":-7.76901,"population":6506},{"name":"Guéhiébli","ascii":"Guehiebli","alternates":[],"lat":6.89479,"lng":-7.43139,"population":6504},{"name":"Zougouzoa","ascii":"Zougouzoa","alternates":[],"lat":6.2121,"lng":-6.59185,"population":6504},{"name":"Zonlé I","ascii":"Zonle I","alternates":["Zoonle","Zoonlé"],"lat":7.36466,"lng":-7.7695,"population":6501},{"name":"Ahizabré","ascii":"Ahizabre","alternates":[],"lat":6.04923,"lng":-6.09978,"population":6499},{"name":"Zéribéri","ascii":"Zeriberi","alternates":["Zeriboue","Zériboué"],"lat":5.38418,"lng":-5.44369,"population":6493},{"name":"Zéalé","ascii":"Zeale","alternates":[],"lat":6.98846,"lng":-8.16097,"population":6491},{"name":"Diéouzon","ascii":"Dieouzon","alternates":["Dyeouzon","Dyéouzon"],"lat":7.15575,"lng":-7.32219,"population":6480},{"name":"Bégbessou","ascii":"Begbessou","alternates":["Bengbessou","Bingbessou"],"lat":7.06697,"lng":-5.59738,"population":6463},{"name":"Bagoliéoua","ascii":"Bagolieoua","alternates":["Bagolieouroua","Bagoliéouroua"],"lat":6.16794,"lng":-6.53318,"population":6446},{"name":"Baléko","ascii":"Baleko","alternates":[],"lat":5.4339,"lng":-6.02594,"population":6443},{"name":"Koréguhé","ascii":"Koreguhe","alternates":["Koreyo","Koréyo"],"lat":6.18859,"lng":-6.65891,"population":6436},{"name":"Amoriki","ascii":"Amoriki","alternates":[],"lat":7.08793,"lng":-4.16155,"population":6420},{"name":"Kangagui","ascii":"Kangagui","alternates":[],"lat":5.71755,"lng":-6.80999,"population":6416},{"name":"Tabagné","ascii":"Tabagne","alternates":["Tabagui","Tabanye"],"lat":7.99104,"lng":-3.06871,"population":6416},{"name":"Piébly Un","ascii":"Piebly Un","alternates":["Piebly","Piébly","Pyebli","Pyébli"],"lat":7.25125,"lng":-7.08299,"population":6413},{"name":"Kouan Houlé","ascii":"Kouan Houle","alternates":[],"lat":7.39279,"lng":-8.26093,"population":6406},{"name":"Badikaha","ascii":"Badikaha","alternates":["Bad-Kaha","Gbadi","Gbadi-Kaha"],"lat":9.19166,"lng":-5.16499,"population":6393},{"name":"Ouellé","ascii":"Ouelle","alternates":["Wele","Wélé"],"lat":10.35602,"lng":-6.80896,"population":6366},{"name":"Wongé","ascii":"Wonge","alternates":["Ouengoue","Ouengoué","Ouongue","Ouongué","Wongue","Wongué"],"lat":8.32675,"lng":-6.57449,"population":6354},{"name":"Pona-Vahi","ascii":"Pona-Vahi","alternates":[],"lat":6.94692,"lng":-7.16088,"population":6333},{"name":"Bassadzin","ascii":"Bassadzin","alternates":["Bassaguie","Bassaguié"],"lat":5.93741,"lng":-3.73819,"population":6322},{"name":"Gouriniani","ascii":"Gouriniani","alternates":[],"lat":7.20357,"lng":-6.18393,"population":6320},{"name":"Yala","ascii":"Yala","alternates":[],"lat":7.37778,"lng":-6.82639,"population":6313},{"name":"Zahirogbeu","ascii":"Zahirogbeu","alternates":["Zairogbe"],"lat":6.76219,"lng":-6.88421,"population":6309},{"name":"Abié","ascii":"Abie","alternates":["Abbie","Abbié"],"lat":5.86647,"lng":-3.92574,"population":6305},{"name":"Waranyéné","ascii":"Waranyene","alternates":["Waraniene","Waraniéné"],"lat":9.41999,"lng":-5.66747,"population":6305},{"name":"Samatiguila","ascii":"Samatiguila","alternates":["Samatigila"],"lat":9.81952,"lng":-7.56085,"population":6278},{"name":"Drayo","ascii":"Drayo","alternates":[],"lat":6.25898,"lng":-6.04026,"population":6275},{"name":"Banguié I","ascii":"Banguie I","alternates":[],"lat":5.90159,"lng":-4.20054,"population":6259},{"name":"Gunglo Zia","ascii":"Gunglo Zia","alternates":["Guinglo Bohouo"],"lat":6.82062,"lng":-7.24392,"population":6252},{"name":"Gotongouiné","ascii":"Gotongouine","alternates":[],"lat":7.17363,"lng":-7.74959,"population":6250},{"name":"Assoumoukro","ascii":"Assoumoukro","alternates":[],"lat":6.46403,"lng":-4.3728,"population":6248},{"name":"Koro","ascii":"Koro","alternates":[],"lat":8.55505,"lng":-7.46348,"population":6219},{"name":"Nassian","ascii":"Nassian","alternates":["Nasiam","Nasian"],"lat":8.45275,"lng":-3.47152,"population":6202},{"name":"Saykro","ascii":"Saykro","alternates":[],"lat":5.2736,"lng":-2.78369,"population":6198},{"name":"Angagui","ascii":"Angagui","alternates":[],"lat":5.94737,"lng":-6.81144,"population":6186},{"name":"Guéssiguié Un","ascii":"Guessiguie Un","alternates":["Guesseguie","Guessigue","Guessiguie I","Guessigué","Guességuié","Guéssiguié I"],"lat":5.73853,"lng":-4.2355,"population":6186},{"name":"Bidiouan","ascii":"Bidiouan","alternates":["Bidihouan"],"lat":6.61531,"lng":-6.23701,"population":6184},{"name":"Akpessékro","ascii":"Akpessekro","alternates":["Akpouessekro","Akpouéssékro"],"lat":6.72488,"lng":-5.30602,"population":6176},{"name":"Tawara","ascii":"Tawara","alternates":["Tahouara","Taouara","Tavouarha"],"lat":9.65719,"lng":-5.65254,"population":6161},{"name":"Gohouo-Zarabaon","ascii":"Gohouo-Zarabaon","alternates":[],"lat":7.00374,"lng":-7.7499,"population":6160},{"name":"Goulikao","ascii":"Goulikao","alternates":[],"lat":6.50706,"lng":-5.52408,"population":6158},{"name":"Biantouo","ascii":"Biantouo","alternates":["Beatro","Béatro"],"lat":6.96438,"lng":-8.24995,"population":6157},{"name":"Kokolopozo","ascii":"Kokolopozo","alternates":[],"lat":5.13662,"lng":-6.08244,"population":6143},{"name":"Wataradougou","ascii":"Wataradougou","alternates":["Ouataradougou","Ouattaradougou","Wattaradougou"],"lat":8.67176,"lng":-5.81538,"population":6130},{"name":"Lomara","ascii":"Lomara","alternates":["Loumana"],"lat":10.35174,"lng":-6.33887,"population":6127},{"name":"Gnanké","ascii":"Gnanke","alternates":[],"lat":5.29851,"lng":-6.5289,"population":6126},{"name":"Nguessankro","ascii":"Nguessankro","alternates":[],"lat":6.63468,"lng":-4.30349,"population":6119},{"name":"Kongaso","ascii":"Kongaso","alternates":["Kongasso"],"lat":7.81533,"lng":-6.07747,"population":6110},{"name":"Cosrou","ascii":"Cosrou","alternates":["Cosru","Kosrou"],"lat":5.31906,"lng":-4.65889,"population":6108},{"name":"Sépénédyokaha","ascii":"Sepenedyokaha","alternates":["Sepenediokaha","Sépénédiokaha"],"lat":9.84286,"lng":-5.15788,"population":6096},{"name":"Allangbakro","ascii":"Allangbakro","alternates":[],"lat":6.75314,"lng":-4.41157,"population":6088},{"name":"Dianambroufla","ascii":"Dianambroufla","alternates":[],"lat":6.65823,"lng":-5.62325,"population":6077},{"name":"Sanégourifla","ascii":"Sanegourifla","alternates":[],"lat":6.65521,"lng":-5.80021,"population":6073},{"name":"Morokro","ascii":"Morokro","alternates":[],"lat":6.0776,"lng":-4.70306,"population":6060},{"name":"Bondo-Dioula","ascii":"Bondo-Dioula","alternates":["Bondou","Bonedo","Boundo-Dioula"],"lat":8.21942,"lng":-3.2004,"population":6058},{"name":"Pissékou","ascii":"Pissekou","alternates":[],"lat":6.28651,"lng":-5.82015,"population":6047},{"name":"Irobo","ascii":"Irobo","alternates":[],"lat":5.29358,"lng":-4.79603,"population":6026},{"name":"Kanangonon","ascii":"Kanangonon","alternates":["Kanangona","Kanangono"],"lat":8.29825,"lng":-5.05627,"population":6026},{"name":"Moronou","ascii":"Moronou","alternates":[],"lat":6.32043,"lng":-4.97121,"population":6017},{"name":"Diasson","ascii":"Diasson","alternates":["Diasso"],"lat":5.97152,"lng":-3.72759,"population":6013},{"name":"Kadioha","ascii":"Kadioha","alternates":["Kadyoha"],"lat":8.96821,"lng":-5.88332,"population":5996},{"name":"Yorodougou","ascii":"Yorodougou","alternates":["Diolodougou","Diorabougou","Dioradougou","Diorodougou"],"lat":7.78356,"lng":-7.88024,"population":5996},{"name":"Diboké","ascii":"Diboke","alternates":["Dibohe","Dibohé"],"lat":6.44434,"lng":-8.11234,"population":5969},{"name":"Dyougoublé","ascii":"Dyougouble","alternates":["Diougoubele","Diougoubélé"],"lat":9.52789,"lng":-5.935,"population":5965},{"name":"Bessedi Anon","ascii":"Bessedi Anon","alternates":["Anon"],"lat":5.92585,"lng":-3.99411,"population":5964},{"name":"Gobroko","ascii":"Gobroko","alternates":[],"lat":5.40626,"lng":-5.90484,"population":5957},{"name":"Balayo","ascii":"Balayo","alternates":[],"lat":6.44012,"lng":-6.01255,"population":5951},{"name":"Mbaoussiéssou","ascii":"Mbaoussiessou","alternates":[],"lat":6.58073,"lng":-4.2711,"population":5946},{"name":"Akoudzin","ascii":"Akoudzin","alternates":[],"lat":6.02639,"lng":-3.98333,"population":5937},{"name":"Zaguinasso","ascii":"Zaguinasso","alternates":["Zinguinasso"],"lat":10.04886,"lng":-6.35999,"population":5934},{"name":"Baoubli","ascii":"Baoubli","alternates":[],"lat":6.80566,"lng":-7.39931,"population":5929},{"name":"Tiapoum","ascii":"Tiapoum","alternates":[],"lat":5.13622,"lng":-3.02308,"population":5920},{"name":"Monga","ascii":"Monga","alternates":[],"lat":5.47623,"lng":-3.6607,"population":5902},{"name":"Noumousséria I","ascii":"Noumousseria I","alternates":["Noumouseria I","Noumouséria I"],"lat":6.70982,"lng":-6.66308,"population":5893},{"name":"Ponan","ascii":"Ponan","alternates":[],"lat":5.90336,"lng":-7.47722,"population":5889},{"name":"Zakuéoua","ascii":"Zakueoua","alternates":["Zakoeoua","Zakoéoua"],"lat":6.24931,"lng":-6.50741,"population":5883},{"name":"Sérigbangan","ascii":"Serigbangan","alternates":[],"lat":5.52778,"lng":-6.71258,"population":5882},{"name":"Facobly","ascii":"Facobly","alternates":["Fakobli","Fakobly","Fakoli"],"lat":7.3883,"lng":-7.37644,"population":5880},{"name":"Adikokoi","ascii":"Adikokoi","alternates":["Adikokwa"],"lat":6.63331,"lng":-3.71193,"population":5852},{"name":"Béoua","ascii":"Beoua","alternates":["Beoue","Béoué"],"lat":6.5399,"lng":-7.64601,"population":5842},{"name":"Yorobodi","ascii":"Yorobodi","alternates":["Yerebodi","Yoroboudi","Yérébodi"],"lat":8.11913,"lng":-3.68191,"population":5841},{"name":"Mahino","ascii":"Mahino","alternates":[],"lat":5.11262,"lng":-7.4149,"population":5833},{"name":"Banneu","ascii":"Banneu","alternates":["Banneuo"],"lat":7.07343,"lng":-8.25311,"population":5830},{"name":"Fadiadougou","ascii":"Fadiadougou","alternates":["Fadyadougou","Ferekedougou","Férékédougou"],"lat":8.7,"lng":-6.62139,"population":5813},{"name":"Yrozon","ascii":"Yrozon","alternates":["Irouzon I"],"lat":6.84043,"lng":-7.21862,"population":5813},{"name":"Sakaouo","ascii":"Sakaouo","alternates":["Sakahouo","Sakaou"],"lat":6.46381,"lng":-5.69083,"population":5810},{"name":"Duonfla","ascii":"Duonfla","alternates":[],"lat":6.843,"lng":-5.49915,"population":5806},{"name":"Lasologo","ascii":"Lasologo","alternates":["Lassologo"],"lat":9.58605,"lng":-5.10091,"population":5793},{"name":"Gloubli","ascii":"Gloubli","alternates":[],"lat":6.89842,"lng":-7.77758,"population":5786},{"name":"Koumoudji","ascii":"Koumoudji","alternates":["Koumogui"],"lat":6.64449,"lng":-5.63742,"population":5773},{"name":"Katoro","ascii":"Katoro","alternates":["Katono","Katorho"],"lat":10.14962,"lng":-6.12869,"population":5769},{"name":"Ouréyo","ascii":"Oureyo","alternates":[],"lat":6.01972,"lng":-6.59778,"population":5768},{"name":"Bouafla","ascii":"Bouafla","alternates":["Bouafla I"],"lat":7.25219,"lng":-5.84987,"population":5750},{"name":"Ehuasso","ascii":"Ehuasso","alternates":[],"lat":6.32597,"lng":-3.44403,"population":5750},{"name":"Bagasséhoa","ascii":"Bagassehoa","alternates":["Bagaseoa","Bagaséoa","Bakasseoua","Bakasséoua"],"lat":6.19053,"lng":-6.36254,"population":5747},{"name":"Soukourougban","ascii":"Soukourougban","alternates":["Soukourougben","Sukurugban"],"lat":7.84873,"lng":-5.93504,"population":5747},{"name":"Tahably Glodé","ascii":"Tahably Glode","alternates":["Gaozon"],"lat":6.74399,"lng":-7.24159,"population":5742},{"name":"Grand Yapo","ascii":"Grand Yapo","alternates":[],"lat":5.82634,"lng":-4.15452,"population":5740},{"name":"Kayo","ascii":"Kayo","alternates":[],"lat":5.80977,"lng":-6.47534,"population":5738},{"name":"Didizo","ascii":"Didizo","alternates":[],"lat":5.65104,"lng":-5.45993,"population":5737},{"name":"Mahalé","ascii":"Mahale","alternates":["Mahole","Maholé"],"lat":10.12893,"lng":-6.57778,"population":5729},{"name":"Blotilé","ascii":"Blotile","alternates":[],"lat":7.04902,"lng":-7.69201,"population":5721},{"name":"Mabouo","ascii":"Mabouo","alternates":[],"lat":5.93446,"lng":-6.02418,"population":5720},{"name":"Nandibo Un","ascii":"Nandibo Un","alternates":["Nandibo"],"lat":5.28381,"lng":-4.92117,"population":5714},{"name":"Balahio","ascii":"Balahio","alternates":["Balayo","Bolohio"],"lat":6.31448,"lng":-6.42587,"population":5712},{"name":"Boka","ascii":"Boka","alternates":[],"lat":5.94293,"lng":-4.39767,"population":5711},{"name":"Bielou-carrefour","ascii":"Bielou-carrefour","alternates":[],"lat":8.54139,"lng":-6.20056,"population":5710},{"name":"Boboua","ascii":"Boboua","alternates":[],"lat":7.01945,"lng":-6.47003,"population":5708},{"name":"Gouriela","ascii":"Gouriela","alternates":[],"lat":7.53053,"lng":-6.5145,"population":5708},{"name":"Sarhala","ascii":"Sarhala","alternates":["Sakala"],"lat":8.41789,"lng":-6.17147,"population":5702},{"name":"Djidjikro","ascii":"Djidjikro","alternates":[],"lat":5.30993,"lng":-4.87689,"population":5694},{"name":"Zadioa","ascii":"Zadioa","alternates":["Zadiohoa","Zadioua"],"lat":6.43153,"lng":-6.39783,"population":5685},{"name":"Ahéoua","ascii":"Aheoua","alternates":[],"lat":6.36064,"lng":-3.86087,"population":5680},{"name":"Angovia","ascii":"Angovia","alternates":[],"lat":7.03305,"lng":-5.53697,"population":5680},{"name":"Kreuzokoué","ascii":"Kreuzokoue","alternates":[],"lat":6.07216,"lng":-5.44359,"population":5654},{"name":"Annépé","ascii":"Annepe","alternates":["Anape","Anapé","Anepe","Anépé"],"lat":5.90612,"lng":-3.76986,"population":5648},{"name":"Gogobro","ascii":"Gogobro","alternates":[],"lat":6.15532,"lng":-5.32088,"population":5645},{"name":"Kotouagnoa","ascii":"Kotouagnoa","alternates":[],"lat":5.21608,"lng":-2.89049,"population":5645},{"name":"Lokossou","ascii":"Lokossou","alternates":[],"lat":6.60116,"lng":-7.37859,"population":5645},{"name":"Akati","ascii":"Akati","alternates":[],"lat":6.39852,"lng":-3.21473,"population":5629},{"name":"Zraluo","ascii":"Zraluo","alternates":[],"lat":7.57237,"lng":-5.88859,"population":5628},{"name":"Gouabafla","ascii":"Gouabafla","alternates":[],"lat":7.32113,"lng":-6.56099,"population":5619},{"name":"Odia","ascii":"Odia","alternates":["Odyaha","Oundia"],"lat":9.37361,"lng":-6.16889,"population":5614},{"name":"Kanouan","ascii":"Kanouan","alternates":["Assandre Kanoua","Assandré Kanoua"],"lat":7.41694,"lng":-5.45222,"population":5611},{"name":"Komborodougou","ascii":"Komborodougou","alternates":["Kogaha","Komboro","Komboro-Dougou","Konborodougou"],"lat":9.32634,"lng":-5.42922,"population":5611},{"name":"Offa","ascii":"Offa","alternates":["Ofa"],"lat":5.92241,"lng":-4.34689,"population":5610},{"name":"Amangbo","ascii":"Amangbo","alternates":[],"lat":6.0206,"lng":-4.37141,"population":5602},{"name":"Minfla","ascii":"Minfla","alternates":[],"lat":7.52299,"lng":-6.04404,"population":5602},{"name":"Bodo","ascii":"Bodo","alternates":[],"lat":5.90955,"lng":-4.68498,"population":5579},{"name":"Taoudi","ascii":"Taoudi","alternates":["Tahoudi","Tan-Oudi","Tan-Udi"],"lat":8.13701,"lng":-3.43473,"population":5571},{"name":"Séman","ascii":"Seman","alternates":[],"lat":6.89358,"lng":-5.29709,"population":5561},{"name":"Godoua","ascii":"Godoua","alternates":[],"lat":6.51865,"lng":-6.30316,"population":5559},{"name":"Koréagui","ascii":"Koreagui","alternates":["Korreagui","Korréagui"],"lat":5.54303,"lng":-6.60172,"population":5559},{"name":"Ira","ascii":"Ira","alternates":[],"lat":5.35403,"lng":-4.65894,"population":5558},{"name":"Olodio","ascii":"Olodio","alternates":[],"lat":4.71589,"lng":-7.46696,"population":5554},{"name":"Mantongouiné","ascii":"Mantongouine","alternates":["Mlatongouine","Mlatongouiné"],"lat":7.28782,"lng":-8.03824,"population":5553},{"name":"Ondéfidouo","ascii":"Ondefidouo","alternates":[],"lat":9.04384,"lng":-3.08297,"population":5552},{"name":"Béréblo","ascii":"Bereblo","alternates":[],"lat":5.27505,"lng":-7.46269,"population":5549},{"name":"Apron-Pronou","ascii":"Apron-Pronou","alternates":["Amprompromou","Appronpronou","Aprompromou","Aprompronou"],"lat":7.00129,"lng":-3.36017,"population":5543},{"name":"Guintéguéla","ascii":"Guinteguela","alternates":["Gentegela","Gentégéla","Gouenteguela","Gouentéguéla","Guentegela","Guenteguela","Guentéguéla"],"lat":8.29044,"lng":-7.30927,"population":5543},{"name":"Brouagui","ascii":"Brouagui","alternates":[],"lat":5.65075,"lng":-6.82418,"population":5530},{"name":"Zakarékro","ascii":"Zakarekro","alternates":["Zakako","Zakareko","Zakarko"],"lat":5.10965,"lng":-5.60241,"population":5522},{"name":"Yaobou","ascii":"Yaobou","alternates":["Yaobam","Yaobane","Yaobané"],"lat":5.7115,"lng":-4.41274,"population":5520},{"name":"Léomidouo","ascii":"Leomidouo","alternates":[],"lat":9.03536,"lng":-2.90439,"population":5519},{"name":"Gaboua","ascii":"Gaboua","alternates":["Gapoa","Gapoua"],"lat":7.0625,"lng":-6.46806,"population":5518},{"name":"Douékpé","ascii":"Douekpe","alternates":[],"lat":7.1362,"lng":-7.32839,"population":5511},{"name":"Bokéda","ascii":"Bokeda","alternates":[],"lat":6.3615,"lng":-5.71192,"population":5502},{"name":"Inahiri","ascii":"Inahiri","alternates":["Inairi","Inaïri"],"lat":5.14007,"lng":-6.21354,"population":5500},{"name":"Guéoulé","ascii":"Gueoule","alternates":["Gelemou","Geole","Geolé","Geoule","Gélémou","Géoulé"],"lat":7.59893,"lng":-7.90071,"population":5488},{"name":"Séguié","ascii":"Seguie","alternates":[],"lat":6.05573,"lng":-4.09421,"population":5485},{"name":"Broubrou","ascii":"Broubrou","alternates":["Broubou","Brubu","Buruburu"],"lat":5.72477,"lng":-4.8237,"population":5471},{"name":"Ourouta","ascii":"Ourouta","alternates":[],"lat":7.14219,"lng":-6.3143,"population":5469},{"name":"Gbimanan","ascii":"Gbimanan","alternates":[],"lat":8.23371,"lng":-6.79954,"population":5454},{"name":"Kpangban","ascii":"Kpangban","alternates":[],"lat":5.58177,"lng":-6.75359,"population":5443},{"name":"Adiékro","ascii":"Adiekro","alternates":[],"lat":7.06743,"lng":-3.69271,"population":5441},{"name":"Hallanikro","ascii":"Hallanikro","alternates":[],"lat":6.85323,"lng":-5.63957,"population":5440},{"name":"Brouta","ascii":"Brouta","alternates":["Brohouta"],"lat":7.24953,"lng":-6.18451,"population":5438},{"name":"Suéfla","ascii":"Suefla","alternates":[],"lat":6.8521,"lng":-5.71466,"population":5434},{"name":"Gbeugréhoa","ascii":"Gbeugrehoa","alternates":[],"lat":6.20546,"lng":-6.33818,"population":5423},{"name":"Kossandji","ascii":"Kossandji","alternates":["Kossadji","Kossaji","Kossandi"],"lat":5.82463,"lng":-3.61566,"population":5423},{"name":"Kélégbala","ascii":"Kelegbala","alternates":[],"lat":10.03229,"lng":-6.75961,"population":5421},{"name":"Krokroum","ascii":"Krokroum","alternates":[],"lat":5.2111,"lng":-5.40944,"population":5410},{"name":"Fiékon","ascii":"Fiekon","alternates":["Fiekom-Borombo","Fiekon Borombo","Fiékom-Borombo","Fiékon Borombo"],"lat":7.09963,"lng":-6.84547,"population":5396},{"name":"Djibrosso","ascii":"Djibrosso","alternates":["Giboroso","Guiborosso"],"lat":8.76968,"lng":-6.99918,"population":5392},{"name":"Ahouakro","ascii":"Ahouakro","alternates":["Aouakro"],"lat":6.11987,"lng":-4.87238,"population":5380},{"name":"Mibrigué","ascii":"Mibrigue","alternates":["Binberegue","Binbérégué"],"lat":10.28504,"lng":-5.795,"population":5380},{"name":"Tourvré","ascii":"Tourvre","alternates":["Touvele","Touvre","Touvré","Touvélé","Tovre","Tovré"],"lat":9.9033,"lng":-6.50237,"population":5379},{"name":"Zahia","ascii":"Zahia","alternates":["Zaya"],"lat":6.91672,"lng":-6.57811,"population":5370},{"name":"Kétasso","ascii":"Ketasso","alternates":["Ketaso","Kétaso"],"lat":5.75869,"lng":-5.03378,"population":5369},{"name":"Agba-Mbayassou","ascii":"Agba-Mbayassou","alternates":["Agba-Bayassou"],"lat":7.11518,"lng":-4.26818,"population":5366},{"name":"Bodokro","ascii":"Bodokro","alternates":["Badokro"],"lat":7.86144,"lng":-5.47745,"population":5365},{"name":"Lolobo","ascii":"Lolobo","alternates":[],"lat":6.95892,"lng":-5.26581,"population":5361},{"name":"Bounafla","ascii":"Bounafla","alternates":[],"lat":6.72204,"lng":-5.51812,"population":5352},{"name":"Bréguiagui","ascii":"Breguiagui","alternates":[],"lat":5.24854,"lng":-6.37914,"population":5349},{"name":"Transua","ascii":"Transua","alternates":[],"lat":7.55004,"lng":-3.01431,"population":5333},{"name":"Toupah","ascii":"Toupah","alternates":["Toupa","Tupa"],"lat":5.31891,"lng":-4.56552,"population":5330},{"name":"Gaoussoukro","ascii":"Gaoussoukro","alternates":[],"lat":5.2484,"lng":-2.97116,"population":5318},{"name":"Kéiténably","ascii":"Keitenably","alternates":[],"lat":7.26047,"lng":-7.33748,"population":5314},{"name":"Dainé II","ascii":"Daine II","alternates":[],"lat":7.42997,"lng":-7.60525,"population":5307},{"name":"Valoua","ascii":"Valoua","alternates":[],"lat":5.93088,"lng":-6.10075,"population":5303},{"name":"Eboué","ascii":"Eboue","alternates":[],"lat":5.34407,"lng":-3.1255,"population":5296},{"name":"Bébouo-sibouo","ascii":"Bebouo-sibouo","alternates":["Bebouo","Bébouo"],"lat":6.81967,"lng":-6.23775,"population":5294},{"name":"Daouo","ascii":"Daouo","alternates":["Daoua"],"lat":7.40348,"lng":-6.61788,"population":5292},{"name":"Donsohouo","ascii":"Donsohouo","alternates":["Dossouo"],"lat":6.44981,"lng":-5.6963,"population":5288},{"name":"Karamokola","ascii":"Karamokola","alternates":["Karamola"],"lat":8.09985,"lng":-6.18261,"population":5277},{"name":"Mborla-Dioulasso","ascii":"Mborla-Dioulasso","alternates":["Mborola-Dioulasso"],"lat":8.46882,"lng":-4.481,"population":5272},{"name":"Bawakaha","ascii":"Bawakaha","alternates":[],"lat":9.49932,"lng":-5.41023,"population":5270},{"name":"Banoufla","ascii":"Banoufla","alternates":[],"lat":7.11998,"lng":-6.31833,"population":5264},{"name":"Blablata","ascii":"Blablata","alternates":[],"lat":7.28616,"lng":-6.2456,"population":5260},{"name":"Boua","ascii":"Boua","alternates":[],"lat":5.01997,"lng":-7.05443,"population":5257},{"name":"Yopohua","ascii":"Yopohua","alternates":["Yopahua"],"lat":6.39596,"lng":-5.82952,"population":5247},{"name":"Bounantinfla","ascii":"Bounantinfla","alternates":[],"lat":6.75449,"lng":-5.91559,"population":5234},{"name":"Koukoguhé","ascii":"Koukoguhe","alternates":[],"lat":6.91063,"lng":-6.56571,"population":5226},{"name":"Pétyonara","ascii":"Petyonara","alternates":["Petenarha","Petionara","Pétionara","Péténarha"],"lat":8.43064,"lng":-5.11429,"population":5225},{"name":"Zogbodoua","ascii":"Zogbodoua","alternates":[],"lat":5.73339,"lng":-6.31338,"population":5216},{"name":"Kouénoufla Don","ascii":"Kouenoufla Don","alternates":["Kouenoufla","Kouénoufla"],"lat":7.35452,"lng":-6.75151,"population":5213},{"name":"Billahio","ascii":"Billahio","alternates":["Bolouehoa","Boloueoa","Bolouéhoa","Bolouéoa"],"lat":6.21378,"lng":-6.14614,"population":5208},{"name":"Ouolo","ascii":"Ouolo","alternates":[],"lat":9.54831,"lng":-5.4246,"population":5208},{"name":"Findimanou","ascii":"Findimanou","alternates":[],"lat":6.83153,"lng":-4.08298,"population":5194},{"name":"Pagnébly","ascii":"Pagnebly","alternates":[],"lat":7.24845,"lng":-7.13249,"population":5190},{"name":"Gbily","ascii":"Gbily","alternates":["Bokoguhe","Bokoguhé"],"lat":6.22964,"lng":-6.96934,"population":5181},{"name":"Amaragui","ascii":"Amaragui","alternates":[],"lat":5.81337,"lng":-6.71579,"population":5178},{"name":"Samapleu","ascii":"Samapleu","alternates":[],"lat":7.76161,"lng":-7.93784,"population":5178},{"name":"Palmindustrie Tamabo","ascii":"Palmindustrie Tamabo","alternates":[],"lat":5.44147,"lng":-4.79541,"population":5177},{"name":"Bonzi","ascii":"Bonzi","alternates":["Bosi","Bozi"],"lat":6.91666,"lng":-5.53405,"population":5161},{"name":"Elenzué","ascii":"Elenzue","alternates":["Elanzue","Elanzué"],"lat":6.80811,"lng":-4.09735,"population":5161},{"name":"Djékanou","ascii":"Djekanou","alternates":["Diekahou","Diékahou"],"lat":6.48389,"lng":-5.11553,"population":5160},{"name":"Goazra","ascii":"Goazra","alternates":["Gaouzra","Gouazra"],"lat":6.94429,"lng":-5.96878,"population":5156},{"name":"Sané-Gazé","ascii":"Sane-Gaze","alternates":[],"lat":6.4586,"lng":-5.80163,"population":5145},{"name":"Boahia","ascii":"Boahia","alternates":[],"lat":7.5717,"lng":-3.51489,"population":5143},{"name":"Béréni-Dialla","ascii":"Bereni-Dialla","alternates":[],"lat":8.00364,"lng":-6.86094,"population":5124},{"name":"Ebimpe","ascii":"Ebimpe","alternates":["Ebimpé","Etimpe","Etimpé"],"lat":5.49901,"lng":-4.08207,"population":5119},{"name":"Gouéda","ascii":"Goueda","alternates":[],"lat":6.21439,"lng":-5.69125,"population":5116},{"name":"Néguépié","ascii":"Neguepie","alternates":[],"lat":10.34762,"lng":-6.51708,"population":5116},{"name":"Abéanou","ascii":"Abeanou","alternates":[],"lat":6.97326,"lng":-4.2328,"population":5112},{"name":"Kananwolo","ascii":"Kananwolo","alternates":["Kanahoulo","Kanahouolo","Kananhouolo"],"lat":8.78256,"lng":-5.3108,"population":5107},{"name":"Bakro","ascii":"Bakro","alternates":[],"lat":5.50681,"lng":-3.2455,"population":5102},{"name":"Dioulabougou-Boléko","ascii":"Dioulabougou-Boleko","alternates":[],"lat":5.35444,"lng":-5.16966,"population":5102},{"name":"Gazahio","ascii":"Gazahio","alternates":["Gazayo"],"lat":6.24409,"lng":-6.35457,"population":5100},{"name":"Gbonkaha","ascii":"Gbonkaha","alternates":["Gbongaa","Gbongaha"],"lat":9.11687,"lng":-6.89666,"population":5099},{"name":"Tonho","ascii":"Tonho","alternates":["Tongo"],"lat":9.90236,"lng":-5.72848,"population":5093},{"name":"Groguida","ascii":"Groguida","alternates":["Grogida","Half Lahou","Half Lahu","Moyen Lahou","Moyen Lahu"],"lat":5.1325,"lng":-5.08555,"population":5082},{"name":"Kiramissé","ascii":"Kiramisse","alternates":["Keramisse","Kerimasse","Kéramissé","Kérimassé"],"lat":8.22181,"lng":-3.44671,"population":5081},{"name":"Zokoguhé-Didéguhé","ascii":"Zokoguhe-Dideguhe","alternates":[],"lat":7.06759,"lng":-6.45901,"population":5081},{"name":"Aouabo","ascii":"Aouabo","alternates":[],"lat":6.23958,"lng":-3.79218,"population":5080},{"name":"Nané","ascii":"Nane","alternates":[],"lat":7.68757,"lng":-7.18685,"population":5080},{"name":"Djidji","ascii":"Djidji","alternates":[],"lat":6.15401,"lng":-5.69333,"population":5075},{"name":"Bandoli","ascii":"Bandoli","alternates":[],"lat":8.59226,"lng":-2.70806,"population":5073},{"name":"Dananon","ascii":"Dananon","alternates":["Danana","Danano","Donanon"],"lat":7.61072,"lng":-6.36333,"population":5069},{"name":"Kiémou","ascii":"Kiemou","alternates":["Tiemou","Tiemu","Tiémou","Tyemou","Tyémou"],"lat":9.0605,"lng":-5.54983,"population":5065},{"name":"Béinleu","ascii":"Beinleu","alternates":["Banghiele","Banghiélé","Banguiele","Banle","Banlé","Beinle","Beinlé","Benle","Benlé"],"lat":7.22838,"lng":-7.88256,"population":5042},{"name":"Assikoun","ascii":"Assikoun","alternates":["Assikun"],"lat":6.4175,"lng":-3.88306,"population":5029},{"name":"Babien","ascii":"Babien","alternates":[],"lat":7.95339,"lng":-6.87053,"population":5011},{"name":"Gréikro","ascii":"Greikro","alternates":[],"lat":6.81693,"lng":-7.05859,"population":5007},{"name":"Nanbonkaha","ascii":"Nanbonkaha","alternates":["Nambonkaha"],"lat":9.74069,"lng":-5.15874,"population":5006},{"name":"Dahoua","ascii":"Dahoua","alternates":[],"lat":6.68253,"lng":-7.34761,"population":4999},{"name":"Temin","ascii":"Temin","alternates":[],"lat":5.53224,"lng":-3.27209,"population":4990},{"name":"Kossou","ascii":"Kossou","alternates":["Konabonou"],"lat":7.00103,"lng":-5.48095,"population":4981},{"name":"Djiroutou","ascii":"Djiroutou","alternates":["Fort Binger","Guiroutou","Patokla"],"lat":5.36758,"lng":-7.28412,"population":4977},{"name":"Morondo","ascii":"Morondo","alternates":[],"lat":8.95152,"lng":-6.78524,"population":4976},{"name":"Gamina","ascii":"Gamina","alternates":["Gamonia"],"lat":6.96772,"lng":-6.65495,"population":4973},