[{"name":"Addis Ababa","ascii":"Addis Ababa","alternates":["ADD","Addis Abaeba","Addis Abbaba","Addis Abeba","Addis Abäba","Addis-Abeba","Addis-Abebae","Addisaaba","Addisz-Abeba","Adis Ababa","Adis Abeba","Adis-Abebo"],"lat":9.02497,"lng":38.74689,"population":3860000},{"name":"Jijiga","ascii":"Jijiga","alternates":["Djidjiga","Djigdjiga","Dschidschiga","Dzhidzhiga","Dzidziga","Dżidżiga","Džidžiga","Giggiga","Giggigga","Gigiga","JIJ","Jigjiga"],"lat":9.35,"lng":42.8,"population":483000},{"name":"Gonder","ascii":"Gonder","alternates":["GDQ","Gondar","Gondehr","Gonderas","Gondero","Gwender","Gwonder","Nkontair","gondaleu","gondaru","gong de er","gwndr"],"lat":12.6,"lng":37.46667,"population":466000},{"name":"Mek'ele","ascii":"Mek'ele","alternates":["MQX","Macalle","Macallè","Makale","Makalle","Maqale","Maqalle","Maqalē","Mehkehle","Mekele","Mekelie","Mekelle"],"lat":13.49667,"lng":39.47528,"population":457900},{"name":"Nazrēt","ascii":"Nazret","alternates":["Adama","Hadama","Nazareth","Nazreth"],"lat":8.55,"lng":39.26667,"population":456900},{"name":"Warder","ascii":"Warder","alternates":["Uardere","Uorder","WRA","Wadere","Wardair","Werder","Werdēr"],"lat":6.97444,"lng":45.34083,"population":450400},{"name":"Awasa","ascii":"Awasa","alternates":["AWA","Avase","Awassa","Hawaasa","Hawassa","hawasa","Āwasa","ʼwwsh","Авасе","אווסה","ሀዋሳ"],"lat":7.06205,"lng":38.47635,"population":422200},{"name":"Bahir Dar","ascii":"Bahir Dar","alternates":["BJR","Babardur Georgis","Bachr-Ntar","Bahar","Bahar Dar","Bahar Dar Ghiorghis","Baher Dar","Baherdar-Giyorgis","Bahr Dar","Bahrdar Giyergio","Bahrdar Giyorgis","Bahyr Dar"],"lat":11.59364,"lng":37.39077,"population":350000},{"name":"Dire Dawa","ascii":"Dire Dawa","alternates":["D'ire Daua","DIR","Daredawa","Dirdabo","Dirdabò","Dire Daba","Dire Daua","Dire Dewa","Dire-Daoua","Direaoua","Diredavy","Dirediua"],"lat":9.59306,"lng":41.86611,"population":343000},{"name":"Dessie","ascii":"Dessie","alternates":["Dase","Dasē","Dehseh","Dehsse","Dese","Desje","Dessa","Desse","Dessi","Dessiè","Dessye","Desē"],"lat":11.13333,"lng":39.63333,"population":270400},{"name":"Jimma","ascii":"Jimma","alternates":["Djimma","Dzhimma","Dzima","Dzimma","Dżimma","Džima","Gima","Gimma","JIM","Jima","Jīma","Tzima"],"lat":7.67344,"lng":36.83441,"population":250900},{"name":"Shashamane","ascii":"Shashamane","alternates":["Sciasciamanna","Sciasciamanne","Shashamana","Shashamani","Shashamanna","Shashamanni","Shashamané","Shashemene","Shashemenē","Shāshamani","ሻሸመኔ"],"lat":7.2,"lng":38.6,"population":208400},{"name":"Bishoftu","ascii":"Bishoftu","alternates":["Biscioftu","Biscioftù","Debra Zeit","Debre Zeit","Debre Zeyit","Debre Zeyt"],"lat":8.75225,"lng":38.97846,"population":207400},{"name":"Sodo","ascii":"Sodo","alternates":["Wolaita Sodo","Wolaytta Sooddo"],"lat":6.86,"lng":37.76159,"population":204100},{"name":"Arba Minch","ascii":"Arba Minch","alternates":["AMH","Arba Mench","Arba Mintch","Arba-Mynch","Arbbaa Mincce","Gantar","Minghi","Арба-Мынч","አርባ ምንጭ"],"lat":6.03333,"lng":37.55,"population":201000},{"name":"Hosa’ina","ascii":"Hosa'ina","alternates":["Hosaena","Hosana","Hosanna","Hossana","Hosseina","Hosāenā"],"lat":7.54978,"lng":37.85374,"population":188200},{"name":"Dīla","ascii":"Dila","alternates":["Dilla","Дила"],"lat":6.41667,"lng":38.31667,"population":158800},{"name":"Harar","ascii":"Harar","alternates":["Charar","Harar Jugol","Hararas","Harer","Harrar","Hārar","Hārer","Kharar","Kharehr","Kharer","ha lei er","halaleu"],"lat":9.31387,"lng":42.11815,"population":157000},{"name":"Nek’emtē","ascii":"Nek'emte","alternates":["Lakemti","Lechempte","Lechempti","Lechemti","Lechenti","Lehempti","Lekempti","Lekemt","Lekemte","Lekemti","NEK","Nak'amet"],"lat":9.08333,"lng":36.55,"population":156000},{"name":"Ārabī","ascii":"Arabi","alternates":[],"lat":9.96278,"lng":42.49278,"population":148933},{"name":"Debre Birhan","ascii":"Debre Birhan","alternates":["Dabra Berham","Dabra-Berhan","Dabra-Berhān","Debra Berham","Debra Berhan","Debra Birhan","Debra Brehan","Debre Berhan","Debre Birhana","Debre Birhanas","Debre Byrhan","Debre-Berkhan"],"lat":9.67954,"lng":39.53262,"population":146900},{"name":"Debre Mark’os","ascii":"Debre Mark'os","alternates":["DBM","Dabra Marko's","Dabra Mārko’s","Dabra-7arqos","Dabra-7ārqos","Debra Marcos","Debra Markos","Debre Marcos","Moncorer","Monkorer"],"lat":10.35,"lng":37.73333,"population":140700},{"name":"Āsela","ascii":"Asela","alternates":["Asala","Asalā","Asella","Aselle","Assela","Asselle"],"lat":7.95,"lng":39.13333,"population":139500},{"name":"Kombolcha","ascii":"Kombolcha","alternates":["Cambolcia","Combolcha","Combolcia","DSE","Kambolcha","Kambolchā","Kembolcha","Kembolcza","Kombol'cha","Kombolca","Kombolcah","Kombolča"],"lat":11.08155,"lng":39.74339,"population":132100},{"name":"Debre Tabor","ascii":"Debre Tabor","alternates":["DBT","Dabra-Tabor","Dabra-Tābor","Debra Tabor","Debre Taboras","Samara","dbrh tabwr","dbrh tbwr","de bo lei ta bo er","de bu lei ta bo er","dybry tabwr","דברה תבור"],"lat":11.85,"lng":38.01667,"population":125300},{"name":"Ādīgrat","ascii":"Adigrat","alternates":[],"lat":14.277,"lng":39.462,"population":121800},{"name":"Weldiya","ascii":"Weldiya","alternates":["Ualdia","Uol'dyja","Veldija","Waldeya","Waldeyā","Waldia","Weldia","Weldya","Woldia","Wubete","wldya","wo er di ya"],"lat":11.8277,"lng":39.59164,"population":104000},{"name":"Sebeta","ascii":"Sebeta","alternates":[],"lat":8.91667,"lng":38.61667,"population":102300},{"name":"Burayu","ascii":"Burayu","alternates":[],"lat":9.03528,"lng":38.66083,"population":101400},{"name":"Inda Silasē","ascii":"Inda Silase","alternates":["Enda Salassie","Enda Selase","Enda Selassie","Enda Selassye","Enda Sellassie","Endā Selāsē","Inda Selassie","SHC","Shire Inda Silase","Shirē Inda Silasē","Ynda Syllase"],"lat":14.10307,"lng":38.28289,"population":100100},{"name":"Hāgere Hiywet","ascii":"Hagere Hiywet","alternates":["Agere Hiywet","Ambo","Hagere Hiwot","Hagere Hiywot","Hagere-Hiywer","Āmbo"],"lat":8.98333,"lng":37.85,"population":99900},{"name":"Arsi Negele","ascii":"Arsi Negele","alternates":["Nageellee Arsii","Negele Arsi"],"lat":7.3547,"lng":38.67465,"population":98100},{"name":"Gambēla","ascii":"Gambela","alternates":["GMB","Gambeila","Gambela Post","Gambele","Gambella","Гамбеле"],"lat":8.25,"lng":34.58333,"population":97600},{"name":"Aksum","ascii":"Aksum","alternates":["AXU","Akesum","Aksoum","Aksumo","Axum","akswm","Āksum","Аксум","أكسوم","አክሱም"],"lat":14.12109,"lng":38.72337,"population":94500},{"name":"Ziway","ascii":"Ziway","alternates":["Zwai","Zway"],"lat":7.93333,"lng":38.71667,"population":90500},{"name":"Butajīra","ascii":"Butajira","alternates":["Butajera","Butlagira","Buttagira"],"lat":8.11667,"lng":38.36667,"population":89800},{"name":"Adwa","ascii":"Adwa","alternates":["Adaba","Adoua","Adowa","Adua","Aduwa","Aduwā","Adva","Antooua","Auda","a du hua","a du wa","ada'oya"],"lat":14.16347,"lng":38.89924,"population":85600},{"name":"Gununo","ascii":"Gununo","alternates":["gununo","ጉኑኖ"],"lat":6.92471,"lng":37.65263,"population":84510},{"name":"Āreka","ascii":"Areka","alternates":["Ancheto","Arakka","Areka Ancheto"],"lat":7.06667,"lng":37.7,"population":84500},{"name":"Yirga ‘Alem","ascii":"Yirga 'Alem","alternates":["Abosto","Agraria","Dalle","Irgalem","Jirga-Alem","Yirga `Alem","Yirgalem","arghalm","arjalm","Ābosto","Йирга-Алем","ירגעלם"],"lat":6.75,"lng":38.41667,"population":81600},{"name":"Waliso","ascii":"Waliso","alternates":["Chitu","Ghion","Gion","Giyon","Guyon","Ualiso","Uoliso","Uolisò","Walliso","Walso","Weliso","Welso"],"lat":8.53417,"lng":37.96515,"population":78600},{"name":"Welk’īt’ē","ascii":"Welk'it'e","alternates":["Uolchitte","Uolkitte","Uolkittè","Walkite","Walkitti","Wolkite"],"lat":8.28333,"lng":37.78333,"population":77500},{"name":"Mek’ī","ascii":"Mek'i","alternates":["Maki"],"lat":8.15,"lng":38.81667,"population":75200},{"name":"Negēlē","ascii":"Negele","alternates":["EGL","Nagele","Nagēlē","Negelie","Negelle","Negelli","Neghelle","Neghelli"],"lat":5.31667,"lng":39.58333,"population":73100},{"name":"K’olīto","ascii":"K'olito","alternates":["Alaba","Alaba K'ulito","Alaba Kolito","Colito","Golito","Goluto","Ālaba K’ulīto"],"lat":7.31667,"lng":38.08333,"population":72200},{"name":"Alamata","ascii":"Alamata","alternates":["Alamat'a","Alemata","Alomata","Alomato","Ālamat’ā"],"lat":12.416,"lng":39.55971,"population":70400},{"name":"Ciro","ascii":"Ciro","alternates":["Chiro"],"lat":7.83333,"lng":38.23333,"population":69800},{"name":"Āsosa","ascii":"Asosa","alternates":["ASO","Асоса"],"lat":10.06667,"lng":34.53333,"population":69700},{"name":"Gode","ascii":"Gode","alternates":["GDE","Godey","Godi","Godē"],"lat":5.95056,"lng":43.55186,"population":67900},{"name":"Tēpī","ascii":"Tepi","alternates":["TIE","Tippi"],"lat":7.2,"lng":35.45,"population":66700},{"name":"Goba","ascii":"Goba","alternates":["GOB","Gobba","Gobbà","Гоба"],"lat":7.01667,"lng":39.98333,"population":66500},{"name":"Duramē","ascii":"Durame","alternates":[],"lat":7.23333,"lng":37.88333,"population":65900},{"name":"Bodītī","ascii":"Boditi","alternates":["Bodditte","Boditu","Bodity"],"lat":6.96667,"lng":37.86667,"population":64900},{"name":"Gimbi","ascii":"Gimbi","alternates":["GHD","Gembi","Ghimbi","Gīmbī"],"lat":9.17031,"lng":35.83491,"population":64300},{"name":"Wik’ro","ascii":"Wik'ro","alternates":["Ugoro","Uikro","Uogoro","Uogorò","Wukro"],"lat":13.79525,"lng":39.60303,"population":64000},{"name":"‘Alemaya","ascii":"'Alemaya","alternates":["Alem Maya","Haramaya","`Alemaya"],"lat":9.39334,"lng":42.00967,"population":63700},{"name":"Mīzan Teferī","ascii":"Mizan Teferi","alternates":["MTF","Mesan","Mizan","Mizan Tafari","Mizan Tefere","Mizan-Aman","Mizon Teferi"],"lat":6.99865,"lng":35.58879,"population":62000},{"name":"Mojo","ascii":"Mojo","alternates":["Maggio","Moccia","Modjo","Moggio","Mojjio","Mojjo"],"lat":8.58679,"lng":39.12111,"population":61300},{"name":"Dembī Dolo","ascii":"Dembi Dolo","alternates":["DEM","Dambidollo","Dambidolo","Dembi Doilo","Dembidollo","Dembilollo","Saio"],"lat":8.53333,"lng":34.8,"population":61100},{"name":"Felege Neway","ascii":"Felege Neway","alternates":["Felege Niway","Sawla","Sawla Felege Neway"],"lat":6.3,"lng":36.88333,"population":61000},{"name":"Metu","ascii":"Metu","alternates":["Mattu","Mettu"],"lat":8.3,"lng":35.58333,"population":59700},{"name":"Wendo","ascii":"Wendo","alternates":["Aleta Wendo","Uondo","Wando","Wondo"],"lat":6.6,"lng":38.41667,"population":59300},{"name":"Mot’a","ascii":"Mot'a","alternates":["Mata","Motta"],"lat":11.08333,"lng":37.86667,"population":59000},{"name":"Finote Selam","ascii":"Finote Selam","alternates":["Fenote Selam"],"lat":10.7,"lng":37.26667,"population":58400},{"name":"Hagere Maryam","ascii":"Hagere Maryam","alternates":["Agere Mariam","Agere Maryam","Aghere Mariam","Alga","Alge","Alghe","Algheremariam","Algā","Bule Hora","Hagere Mariam","Āgere Maryam"],"lat":5.63418,"lng":38.23603,"population":57700},{"name":"Fichē","ascii":"Fiche","alternates":["Feche","Fechē","Ficce","Fice","Fitche"],"lat":9.8,"lng":38.73333,"population":57100},{"name":"Kobo","ascii":"Kobo","alternates":[],"lat":10.02798,"lng":39.8528,"population":56100},{"name":"Bonga","ascii":"Bonga","alternates":["Bonga (1)","Bonga (2)","Bonga(2)","Бонга"],"lat":7.28889,"lng":36.24167,"population":56000},{"name":"Dangila","ascii":"Dangila","alternates":["Danghela","Danghila","Danghilla","Dangla","Dungoler","Dānglā"],"lat":11.26667,"lng":36.83333,"population":56000},{"name":"Jinka","ascii":"Jinka","alternates":[],"lat":5.65,"lng":36.65,"population":54400},{"name":"Āgaro","ascii":"Agaro","alternates":["Aggaro","Aggarò"],"lat":7.85,"lng":36.65,"population":52800},{"name":"Chagni","ascii":"Chagni","alternates":[],"lat":10.95627,"lng":36.50456,"population":52300},{"name":"Sek’ot’a","ascii":"Sek'ot'a","alternates":["Sacaya","Sak'ot'a","Sak’ot’ā","Saqot'a","Saqot’a","Socata","Socota","Soketa","Sokota"],"lat":12.63056,"lng":39.03472,"population":50300},{"name":"Samara","ascii":"Samara","alternates":["SZE","Semera","semera","სემერა","ሰመራ"],"lat":11.79342,"lng":41.00578,"population":50000},{"name":"Maych’ew","ascii":"Maych'ew","alternates":["Mai Ceu","Mai Chio","Mai Cio","Mai Ciò","Mai Keu","Maichew","Maitchew","Maych'awu","Maych’awu"],"lat":12.7875,"lng":39.54222,"population":49600},{"name":"Ch’iko","ascii":"Ch'iko","alternates":["Chuko"],"lat":6.58333,"lng":38.33333,"population":49500},{"name":"Genet","ascii":"Genet","alternates":["Gennet","Holata","Holeta","Holetta","Hollatta","Holota","Holotā","Oletta","Zhenja","Женя"],"lat":9.06667,"lng":38.5,"population":48300},{"name":"Hadero","ascii":"Hadero","alternates":["Hadecho"],"lat":7.2,"lng":37.66667,"population":48000},{"name":"Werota","ascii":"Werota","alternates":["Verehta","Wereta","Wereta (2)","Worota","Worrota","uoreta","wo lei ta","wrth","Верэта","ורטה","ወረታ","ウォレタ"],"lat":11.91667,"lng":37.7,"population":47800},{"name":"Kibre Mengist","ascii":"Kibre Mengist","alternates":["Adola","Angedi"],"lat":5.88333,"lng":38.98333,"population":47600},{"name":"Injibara","ascii":"Injibara","alternates":["Engiabara","Enjabara","Enjabārā","Ingiabara","Inja Bara"],"lat":11.0,"lng":36.91667,"population":47500},{"name":"Shakiso","ascii":"Shakiso","alternates":["SKR","sha ji suo","沙基索"],"lat":5.76494,"lng":38.91006,"population":47500},{"name":"Degeh Bur","ascii":"Degeh Bur","alternates":["DGC","Dagabur","Dagahabur","Dasgahbur","Degabur","Degahabur","Degahbur","Degehabur","Degekh Bur","Degh Bur","Deghabour","Dejahabur"],"lat":8.22056,"lng":43.55722,"population":47200},{"name":"Debark’","ascii":"Debark'","alternates":["Dabark'","Dabarq","Dabārk’","Dabārq","Davark","Debarec","Debarech","Debarek","Devark","Dibark"],"lat":13.15611,"lng":37.89806,"population":46800},{"name":"Burē","ascii":"Bure","alternates":["Burie","Burja","Burye","bwry","Буря","بوري"],"lat":10.7,"lng":37.06667,"population":46000},{"name":"Kebri Dahar","ascii":"Kebri Dahar","alternates":["ABK","Gabredarre","K'abradahare","K'ebri Dehar","Kabri Dar","Kebri Dekhar","K’abradaharē","K’ebrī Dehar","Qabridahare"],"lat":6.74,"lng":44.27806,"population":45900},{"name":"Nefas Mewch’a","ascii":"Nefas Mewch'a","alternates":["Ne Fas Macha","Nefas Mocia","Nefas Mocià","Nefas Moicha","Nefas Mucha","Nifas Mewch'a","Nifas Mewch’a"],"lat":11.73333,"lng":38.46667,"population":44200},{"name":"Kemisē","ascii":"Kemise","alternates":["Cascim","Kassebie","Kemissie","Kemse","Kemsē"],"lat":10.71668,"lng":39.86997,"population":43800},{"name":"Dodola","ascii":"Dodola","alternates":["Dodolla","Dodolo","Додола"],"lat":6.98333,"lng":39.18333,"population":43200},{"name":"Ādēt","ascii":"Adet","alternates":["Addiet","Addiet Canna"],"lat":11.26667,"lng":37.48333,"population":43200},{"name":"Āsasa","ascii":"Asasa","alternates":[],"lat":7.1,"lng":39.2,"population":42900},{"name":"Mer’āwī","ascii":"Mer'awi","alternates":[],"lat":11.41667,"lng":37.16667,"population":42200},{"name":"Shonē","ascii":"Shone","alternates":["Shene","Sheno","Shenē","Shoney"],"lat":7.13333,"lng":37.95,"population":41900},{"name":"Dolo","ascii":"Dolo","alternates":["Dolò"],"lat":13.49923,"lng":39.63723,"population":41400},{"name":"Gebre Guracha","ascii":"Gebre Guracha","alternates":["Cuyu","Gabra Guracha","Gabre Guracha","Kuyu"],"lat":9.8,"lng":38.4,"population":41200},{"name":"Yirga Ch’efē","ascii":"Yirga Ch'efe","alternates":["Chefe","Irriga Shafi","Yrga Chafe"],"lat":6.16667,"lng":38.2,"population":40600},{"name":"Bedelē","ascii":"Bedele","alternates":["Beddele","Bedelle","Bedelli"],"lat":8.456,"lng":36.35302,"population":40500},{"name":"Robit","ascii":"Robit","alternates":["Robi","Robī","Shewa Robi"],"lat":9.99461,"lng":39.89693,"population":39600},{"name":"Asaita","ascii":"Asaita","alternates":["Aisaita","Asajita","Asajta","Asayita","Asayta","Assayita","Assayta","Aysa'ita","a sa yi ta","asaita","Āsayita","Āysa’īta"],"lat":11.56838,"lng":41.43869,"population":39400},{"name":"Nejo","ascii":"Nejo","alternates":["NEJ","Najo","Nedjo","Neggio","Nego","Neju","nei qiao","nejo","ネジョ","內喬"],"lat":9.5,"lng":35.5,"population":39400},{"name":"T’īs Isat","ascii":"T'is Isat","alternates":["Dildil","T'is Abay","Tisisat Dil Dil","Tisoha Dildil","Tisohà Dildil","T’īs Ābay"],"lat":11.48333,"lng":37.58333,"population":39200},{"name":"Lalibela","ascii":"Lalibela","alternates":["Eaglaisi Lalibela","Eaglaisí Lalibela","Klippekirkerne i Lalibela","LLI","Laalibalaa","Labibela","Lalibaela","Lalibala","Lalibehla","Lalibelo","Lalibäla","Lalimpela"],"lat":12.03219,"lng":39.04756,"population":39100},{"name":"Shinshicho","ascii":"Shinshicho","alternates":[],"lat":7.20556,"lng":37.77778,"population":38400},{"name":"Lasoano","ascii":"Lasoano","alternates":["Laasacaano","Laasacaanood","Laasocaano","Laasocaanood","Laso Ano","Laso Anod"],"lat":6.25532,"lng":45.3853,"population":38000},{"name":"Bedēsa","ascii":"Bedesa","alternates":["Badessa","Bedessa","bei de sa","貝德薩"],"lat":8.9,"lng":40.78333,"population":37700},{"name":"Batī","ascii":"Bati","alternates":["Batia","Batie"],"lat":11.19152,"lng":40.01675,"population":37600},{"name":"Gīnch’ī","ascii":"Ginch'i","alternates":["Ginsi"],"lat":9.03333,"lng":38.15,"population":37600},{"name":"Qorof","ascii":"Qorof","alternates":["Corof","Corrof","Gorof","Gorrof","Koraf","Qorrof"],"lat":6.58222,"lng":46.43333,"population":37080},{"name":"Bek’ojī","ascii":"Bek'oji","alternates":["Boccoggi","Bocoggi","Bok'oji","Bokoggi","Bok’ojī"],"lat":7.53333,"lng":39.25,"population":36800},{"name":"Babīlē","ascii":"Babile","alternates":["Babih","Babilli"],"lat":9.22556,"lng":42.33222,"population":36700},{"name":"Bichena","ascii":"Bichena","alternates":["Bechana","Bechanā","Biccena","Bichana","bi che na","Бичена","比徹納"],"lat":10.45,"lng":38.2,"population":36500},{"name":"Āwash","ascii":"Awash","alternates":["Auasc","Awash Sebat Kilo"],"lat":8.99364,"lng":40.16637,"population":36500},{"name":"Mersa","ascii":"Mersa","alternates":[],"lat":11.66667,"lng":39.65,"population":36300},{"name":"Yabēlo","ascii":"Yabelo","alternates":["BYY","Iavello","Yabalo","Yavello","Yavelo","Yeabelo","Yebelo","Yābalo"],"lat":4.88333,"lng":38.08333,"population":36300},{"name":"Ādīs Zemen","ascii":"Adis Zemen","alternates":["Addis Zaman","Addis Zemen","Addis-Zehmehn","adys zmn","Аддис-Зэмэн","ادیس زمن","አዲስ ዘመን"],"lat":12.11667,"lng":37.78333,"population":36300},{"name":"Dubti","ascii":"Dubti","alternates":["Dubtī","Dufti","Dufty","Duftī"],"lat":11.73292,"lng":41.082,"population":36100},{"name":"Sheraro","ascii":"Sheraro","alternates":["Cheraro","Scheraro"],"lat":14.40076,"lng":37.93399,"population":36100},{"name":"Yamarugley","ascii":"Yamarugley","alternates":["Yamaaruglay","Yamaarugley","Yamaruglay","Yamarugle","Ymaarugle"],"lat":6.80768,"lng":46.08482,"population":36000},{"name":"Korem","ascii":"Korem","alternates":["Koram","Kworam","Quaram","Quoram","Quoram Vecchia","Quorem","koremu","Корем","コレム"],"lat":12.50583,"lng":39.52278,"population":35600},{"name":"Ghinnir","ascii":"Ghinnir","alternates":["GNN","Ghigner","Ghiignir","Ghimir","Ghinner","Ginir","Ginnir","Ginnīr","Gīnīr"],"lat":7.13952,"lng":40.71083,"population":35500},{"name":"Gīdolē","ascii":"Gidole","alternates":["Ghidole","Ghidolie"],"lat":5.65,"lng":37.36667,"population":35500},{"name":"Badessa","ascii":"Badessa","alternates":["Baddeessa","bedesa","በዴሳ"],"lat":6.8773,"lng":37.93619,"population":35294},{"name":"Logīya","ascii":"Logiya","alternates":["Loghia","Logya"],"lat":11.72615,"lng":40.9797,"population":34500},{"name":"Gelemso","ascii":"Gelemso","alternates":["Galamso","Ghelemso","Ghelemsò","Гелемсо"],"lat":8.81667,"lng":40.51667,"population":34200},{"name":"Ābīy Ādī","ascii":"Abiy Adi","alternates":["Abbi Addi","Abi Abdi","Abi Addi","Abi-Adi","Abiy","Aby Adi"],"lat":13.56083,"lng":38.97389,"population":34200},{"name":"Bako","ascii":"Bako","alternates":["Bachio","Baco","Baka","Бако"],"lat":5.78333,"lng":36.56667,"population":34100},{"name":"Fadhigaradle","ascii":"Fadhigaradle","alternates":["Fadgaradle","Fadhi Garadle","Fadhigaraadle","Fadigaradle"],"lat":6.17559,"lng":45.29866,"population":34000},{"name":"Neefkuceliye","ascii":"Neefkuceliye","alternates":["Neefkuceshe","Nefkuceliye","Nefkuelioye"],"lat":6.55459,"lng":45.38992,"population":34000},{"name":"Āykel","ascii":"Aykel","alternates":["Ayikel","Celga","Ch'elga","Ch'ilgiya","Chilga","Ch’elgā","Ch’ilgīya","Kilga"],"lat":12.55,"lng":37.06667,"population":34000},{"name":"Bale Hawassa","ascii":"Bale Hawassa","alternates":["Bale Hawaasa","bale hawasa","ባሌ ሀዋሳ"],"lat":6.919,"lng":37.529,"population":31765},{"name":"Leku","ascii":"Leku","alternates":["Locu"],"lat":6.87309,"lng":38.44425,"population":31700},{"name":"Welench’ītī","ascii":"Welench'iti","alternates":["Aualancheti","Ualankit","Uelenciti","Uolenciti","Wolinchiti"],"lat":8.66667,"lng":39.43333,"population":31500},{"name":"Bale Robe","ascii":"Bale Robe","alternates":["GOB","Robe"],"lat":7.12294,"lng":40.00412,"population":31400},{"name":"Shambu","ascii":"Shambu","alternates":["Sciambo","Shambo","Shembo","Shembu"],"lat":9.56667,"lng":37.1,"population":31100},{"name":"Īteya","ascii":"Iteya","alternates":["Etaya","Eteya","Itaya","Itiya","Ītaya"],"lat":8.13333,"lng":39.23333,"population":31100},{"name":"Dayē","ascii":"Daye","alternates":[],"lat":9.88333,"lng":38.26667,"population":31000},{"name":"Āsbe Teferī","ascii":"Asbe Teferi","alternates":["Asba Littorio","Asbar Tafari","Asbatafari","Asbe Taferi","Asbe Tefen","Asebe Tafari","Asebe Teferi","Āsebe Teferī"],"lat":9.08569,"lng":40.86708,"population":30772},{"name":"Dēra","ascii":"Dera","alternates":["Era"],"lat":8.4,"lng":38.85,"population":30700},{"name":"Guder","ascii":"Guder","alternates":[],"lat":8.97054,"lng":37.76117,"population":30600},{"name":"Insēno","ascii":"Inseno","alternates":["Enseno"],"lat":8.06667,"lng":38.46667,"population":30500},{"name":"Abomsa","ascii":"Abomsa","alternates":["Abonsa"],"lat":9.98333,"lng":39.98333,"population":30400},{"name":"Tulu Bolo","ascii":"Tulu Bolo","alternates":["Masno Gabado"],"lat":8.66667,"lng":38.21667,"population":30000},{"name":"Dembech’a","ascii":"Dembech'a","alternates":["Dambach'a","Dambach’ā","Dembeccia","Dembechia","Denbecha"],"lat":10.55,"lng":37.48333,"population":29800},{"name":"Komtikas","ascii":"Komtikas","alternates":["Aman","Greater Aman"],"lat":6.95766,"lng":35.55746,"population":29400},{"name":"Mehoni","ascii":"Mehoni","alternates":[],"lat":12.79881,"lng":39.64448,"population":29200},{"name":"Wonji","ascii":"Wonji","alternates":["Wenji Gefersa"],"lat":8.4541,"lng":39.21752,"population":29200},{"name":"Mendī","ascii":"Mendi","alternates":["Mandi","NDM","Менди"],"lat":9.8,"lng":35.1,"population":29100},{"name":"Hāyk’","ascii":"Hayk'","alternates":["Haik","Haix","Hayek'","Hāyek’"],"lat":11.3,"lng":39.68333,"population":28500},{"name":"Dabat","ascii":"Dabat","alternates":["Dabat (2)","Dahat","dabat","دابات"],"lat":12.98417,"lng":37.765,"population":28300},{"name":"Gutin","ascii":"Gutin","alternates":[],"lat":9.56561,"lng":36.63569,"population":28300},{"name":"Wacha","ascii":"Wacha","alternates":["Chena","Chena Woreda"],"lat":7.15109,"lng":35.81703,"population":28300},{"name":"Tikil Dingay","ascii":"Tikil Dingay","alternates":["Tikil Dingai"],"lat":12.98417,"lng":37.04417,"population":28200},{"name":"Kofelē","ascii":"Kofele","alternates":["Cofole","Kefole","Kofale"],"lat":7.06667,"lng":38.78333,"population":27900},{"name":"Gasuba","ascii":"Gasuba","alternates":["Gasuubba","Gesuba"],"lat":6.71667,"lng":37.56667,"population":27789},{"name":"Mī’ēso","ascii":"Mi'eso","alternates":["Meheso","Miesso"],"lat":9.23478,"lng":40.75593,"population":27700},{"name":"Mertule Maryam","ascii":"Mertule Maryam","alternates":["Martula","Martula Mariam","Mertale Mariam","Merto Lemariam","Mertule Mariam"],"lat":10.83333,"lng":38.26667,"population":27600},{"name":"Ch’ench’a","ascii":"Ch'ench'a","alternates":["Cencia","Cengia","Dincha","Dincia"],"lat":6.25,"lng":37.56667,"population":27500},{"name":"Huruta","ascii":"Huruta","alternates":["Hurruta","Huruta (1)","Khuruta","Uruta Mariam","Хурута"],"lat":8.15,"lng":39.35,"population":27500},{"name":"Amba Giorgis","ascii":"Amba Giorgis","alternates":["Amba Georgis","Amba Ghiorghis","Amba Giyorgis","Dabat","Dabat (1)","Saint George","Āmba Gīyorgīs"],"lat":12.76889,"lng":37.62389,"population":27300},{"name":"K’ola Diba","ascii":"K'ola Diba","alternates":["Kolla Debba","Sarua"],"lat":12.42417,"lng":37.325,"population":27300},{"name":"May Cadera","ascii":"May Cadera","alternates":[],"lat":14.07294,"lng":36.56828,"population":27300},{"name":"Ibnat","ascii":"Ibnat","alternates":["Ebbenat","Ebnat","Ebnāt","Mercato"],"lat":12.13333,"lng":38.05,"population":27000},{"name":"Deder","ascii":"Deder","alternates":["Dadar","Dedèr"],"lat":9.31168,"lng":41.44301,"population":26900},{"name":"Filakit","ascii":"Filakit","alternates":["Filagit","Filaket","Filatit"],"lat":11.66667,"lng":38.8,"population":26500},{"name":"Gurbetē","ascii":"Gurbete","alternates":["Durbete"],"lat":11.35599,"lng":36.95449,"population":26500},{"name":"Waka","ascii":"Waka","alternates":["Uaca","WAC"],"lat":7.06667,"lng":37.16667,"population":26500},{"name":"Bambesi","ascii":"Bambesi","alternates":["Abba Moti","Abu Matis","Bambishi","Bambīshī","Bombasci"],"lat":9.75,"lng":34.73333,"population":26300},{"name":"Āt’aye","ascii":"At'aye","alternates":["Ataya","Debra Ghelele","Ātaya"],"lat":10.35028,"lng":39.93626,"population":26300},{"name":"Felana","ascii":"Felana","alternates":["Melka Rafa"],"lat":9.46498,"lng":42.18447,"population":26200},{"name":"Maksenyit","ascii":"Maksenyit","alternates":["Maksegnit"],"lat":12.38333,"lng":37.55,"population":25800},{"name":"Metemma","ascii":"Metemma","alternates":["ETE","Gallabat","Genda Wuha","Matama","Matamā","Mehtehma","Metema","Metema Yohanis","Metemma Yohannes","Мэтэма"],"lat":12.95479,"lng":36.15549,"population":25600},{"name":"Sendafa","ascii":"Sendafa","alternates":["Sandafe","Sendefa","Sendefà"],"lat":9.15203,"lng":39.02335,"population":25500},{"name":"Chinahsen","ascii":"Chinahsen","alternates":["Ch'ina Hasen","China-Khasen","Chinhausen","Ch’īna Hasen","Genesenei","Ginesenei","Jinaasene"],"lat":9.50619,"lng":42.60938,"population":25400},{"name":"Idaga Hamus","ascii":"Idaga Hamus","alternates":["Adagamus","Edaga Hamus","Idagaamus"],"lat":14.18722,"lng":39.56389,"population":25400},{"name":"Worabe","ascii":"Worabe","alternates":["Werabe"],"lat":7.85257,"lng":38.18529,"population":25400},{"name":"Abala","ascii":"Abala","alternates":[],"lat":14.23333,"lng":37.0,"population":25300},{"name":"Dimtu","ascii":"Dimtu","alternates":["Dinttuwa","diምtu","ዲምቱ"],"lat":6.92969,"lng":38.12513,"population":25294},{"name":"Raqo","ascii":"Raqo","alternates":["El Rago","Rako","Raqqo"],"lat":6.41919,"lng":45.85251,"population":25090},{"name":"Funyan Bīra","ascii":"Funyan Bira","alternates":["Bivio Fiambiro","Fiambiro","Fiyambiro","Flambiro","Fugnan Hujuba","Fugnanbira","Fun'yam-Dzheba","Funyan Jeba","Funyan Jebe","Fun’yam-Dzheba"],"lat":9.4025,"lng":42.3175,"population":25000},{"name":"Mehal Mēda","ascii":"Mehal Meda","alternates":["Maha Meda","Mahil Meda","Mahil Mēda"],"lat":10.3121,"lng":39.65888,"population":24900},{"name":"Sagurē","ascii":"Sagure","alternates":["Saggure"],"lat":7.75,"lng":39.15,"population":24900},{"name":"Gimja Bēt Maryam","ascii":"Gimja Bet Maryam","alternates":["Agew Gimja Bet","Gimja Beit","Gimjabet Mariam","Āgew Gimja Bēt"],"lat":10.85,"lng":36.88333,"population":24800},{"name":"Ginja Bet","ascii":"Ginja Bet","alternates":["Gimja Beit","Gimjabet"],"lat":10.85029,"lng":36.89277,"population":24800},{"name":"Bedēsa","ascii":"Bedesa","alternates":["Bedessa","Tora"],"lat":6.83333,"lng":38.08333,"population":24600},{"name":"Harbu","ascii":"Harbu","alternates":["Habru"],"lat":10.9202,"lng":39.78714,"population":24500},{"name":"Ābderafī","ascii":"Abderafi","alternates":["Abder Rafi","Abderraft"],"lat":13.73333,"lng":36.45,"population":24500},{"name":"Tarch’a Sodo","ascii":"Tarch'a Sodo","alternates":["Tercha"],"lat":7.15139,"lng":37.17184,"population":24300},{"name":"Hīrna","ascii":"Hirna","alternates":[],"lat":9.21667,"lng":41.1,"population":24200},{"name":"Mambuk","ascii":"Mambuk","alternates":["Mambuc"],"lat":11.28333,"lng":36.21667,"population":24100},{"name":"Gedeb","ascii":"Gedeb","alternates":["Gedeb (1)"],"lat":9.5725,"lng":43.18139,"population":24000},{"name":"Waal","ascii":"Waal","alternates":["Wal"],"lat":6.88658,"lng":46.21508,"population":24000},{"name":"Shendi","ascii":"Shendi","alternates":[],"lat":10.64061,"lng":36.94684,"population":23900},{"name":"‘Alem T’ēna","ascii":"'Alem T'ena","alternates":["Alem Tenna","`Alem T'ena"],"lat":8.3,"lng":38.95,"population":23700},{"name":"‘Alem Ketema","ascii":"'Alem Ketema","alternates":["Alam Katma","Alem Catema","Alām Katma","`Alem Ketema"],"lat":10.08333,"lng":39.03333,"population":23500},{"name":"Metahāra","ascii":"Metahara","alternates":["Matahara","Matahārā","Metehara","mathara","mei te ha la","ماتهارا","梅特哈拉"],"lat":8.9,"lng":39.91667,"population":23403},{"name":"Gēdo","ascii":"Gedo","alternates":["Ghedo"],"lat":9.01667,"lng":37.45,"population":23300},{"name":"Gobēsa","ascii":"Gobesa","alternates":[],"lat":7.61667,"lng":39.5,"population":23200},{"name":"Wegeda","ascii":"Wegeda","alternates":[],"lat":11.21566,"lng":38.36452,"population":23200},{"name":"Kele","ascii":"Kele","alternates":["Kelie"],"lat":6.08333,"lng":38.03333,"population":23100},{"name":"Ara Ali","ascii":"Ara Ali","alternates":["Haro Ali"],"lat":5.96667,"lng":41.03333,"population":23000},{"name":"Arerti","ascii":"Arerti","alternates":[],"lat":13.95,"lng":40.66667,"population":23000},{"name":"El Bahay","ascii":"El Bahay","alternates":["Ceel Bahay","Ceel Baxay","El Bahai","El Bahi","Elbahi"],"lat":6.34656,"lng":45.47811,"population":23000},{"name":"Gīmbīcho","ascii":"Gimbicho","alternates":["Gimbichu","Gimbīchu"],"lat":7.45,"lng":37.63333,"population":22900},{"name":"Kachīsī","ascii":"Kachisi","alternates":["Caccisi","Ginde Beret","Kaccisi","Kachisie"],"lat":9.6,"lng":37.83333,"population":22900},{"name":"Sheno","ascii":"Sheno","alternates":["Debre Birhan","Sciano","Shano"],"lat":9.32936,"lng":39.29337,"population":22900},{"name":"Wenago","ascii":"Wenago","alternates":["Uanago","Uonago","Wonago"],"lat":6.31667,"lng":38.26667,"population":22800},{"name":"Sifra","ascii":"Sifra","alternates":["Chefera","Chiefera","Chifra"],"lat":11.60462,"lng":40.01662,"population":22400},{"name":"Mena","ascii":"Mena","alternates":["Isak Gilo","MZX","Masslo","Meslo","Sacchegillo"],"lat":6.41667,"lng":39.85,"population":22100},{"name":"Digih Habar Es","ascii":"Digih Habar Es","alternates":["Dhigih Habar Esse","Dhigix Habar Ciise"],"lat":6.44258,"lng":45.98329,"population":22000},{"name":"Hartīshēk","ascii":"Hartishek","alternates":["Khartishek"],"lat":9.15722,"lng":43.35417,"population":22000},{"name":"Adebaye","ascii":"Adebaye","alternates":[],"lat":14.20226,"lng":36.75955,"population":21800},{"name":"Damboya","ascii":"Damboya","alternates":["Diniboya"],"lat":7.34813,"lng":37.95063,"population":21800},{"name":"Intich’o","ascii":"Intich'o","alternates":["Ent'ech'o","Enticcio","Entichew","Enticho","Entiscio","Entisciò","Ent’ech’o","Intich'ew","Intīch’ew"],"lat":14.27889,"lng":39.15,"population":21800},{"name":"Āyana","ascii":"Ayana","alternates":["Gida Ayana"],"lat":9.88333,"lng":36.61667,"population":21800},{"name":"Mīlē","ascii":"Mile","alternates":["Mille"],"lat":11.42172,"lng":40.76282,"population":21700},{"name":"Indabaguna","ascii":"Indabaguna","alternates":["Dembeguina","Dembegwina","Dembegwinà","Enda Abaguna","Enda Baguina","Inda Aba Guna","Inda Begoyna"],"lat":13.94944,"lng":38.18417,"population":21400},{"name":"Dibate","ascii":"Dibate","alternates":["Debatie","Dibati"],"lat":10.65,"lng":36.21667,"population":21300},{"name":"Sīrē","ascii":"Sire","alternates":["Sere","Seri","Serē","Sire (2)","Siri","Sirie","Siriè","Sirre","Sīrē (2)"],"lat":8.31667,"lng":39.48333,"population":21300},{"name":"Kuyera","ascii":"Kuyera","alternates":[],"lat":7.3,"lng":38.65,"population":21100},{"name":"Chelenko","ascii":"Chelenko","alternates":["Ch'alango","Ch'alank'o","Ch'elenk'o","Chalanco","Ch’alango","Ch’alank’o","Ch’elenk’o","Ciallanco","Ciallanko","Giallanco","Giallenco"],"lat":9.39749,"lng":41.56104,"population":20900},{"name":"Lumamē","ascii":"Lumame","alternates":[],"lat":10.25,"lng":37.93333,"population":20900},{"name":"Ādīs ‘Alem","ascii":"Adis 'Alem","alternates":["Addis Alem","Addis-Alam","Addis-Ālam","Adis `Alem"],"lat":9.03333,"lng":38.4,"population":20900},{"name":"Suntu","ascii":"Suntu","alternates":["Genet","Gennet","Guennet","Limmu","Limu Genet","Līmu Genet"],"lat":8.1,"lng":36.95,"population":20700},{"name":"Robīt","ascii":"Robit","alternates":[],"lat":12.01667,"lng":39.63333,"population":20679},{"name":"Were Īlu","ascii":"Were Ilu","alternates":["Uorra Ilu","Uorre Ilu","Wara Haylu","Wara Hāylu","Warayelu","Ware Ilu","Warra Hailu","Wereyilu","Woreyilu"],"lat":10.58964,"lng":39.43767,"population":20600},{"name":"Kercha","ascii":"Kercha","alternates":["Qericha"],"lat":5.78009,"lng":38.40887,"population":20500},{"name":"Tīlīlī","ascii":"Tilili","alternates":["Cima"],"lat":10.85,"lng":37.01667,"population":20400},{"name":"Ādīs K’idamē","ascii":"Adis K'idame","alternates":["Addis Kidam"],"lat":11.08333,"lng":36.88333,"population":20100},{"name":"Golwayn","ascii":"Golwayn","alternates":["Goluen","Goluin","Golwane","Golweyn","Guluwin"],"lat":6.50727,"lng":45.83493,"population":20000},{"name":"Kahandhale","ascii":"Kahandhale","alternates":["Kahandhaale","Kaxandhaale"],"lat":5.75279,"lng":45.64603,"population":18000},{"name":"Tebela","ascii":"Tebela","alternates":["Humbbo Xabala","Tabala","Xabala","thebela","ጠበላ"],"lat":6.70608,"lng":37.76966,"population":17538},{"name":"Wenjī","ascii":"Wenji","alternates":["Uongi","Wonji"],"lat":8.45,"lng":39.28333,"population":17120},{"name":"Shanto","ascii":"Shanto","alternates":["Shantto"],"lat":7.02355,"lng":37.86084,"population":15020},{"name":"Duuban","ascii":"Duuban","alternates":[],"lat":6.67985,"lng":46.06619,"population":15000},{"name":"Gorē","ascii":"Gore","alternates":["GOR","Gannat","Genud","Gorei","Gwore"],"lat":8.15,"lng":35.53333,"population":12708},{"name":"Ījajī","ascii":"Ijaji","alternates":["Ejaji","Gimmi"],"lat":9.0,"lng":37.31667,"population":12533},{"name":"Bombe","ascii":"Bombe","alternates":["Bombbe"],"lat":7.13799,"lng":37.58195,"population":11969},{"name":"Dejen","ascii":"Dejen","alternates":["Degen","Dingab"],"lat":10.16667,"lng":38.13333,"population":11739},{"name":"Gawanē","ascii":"Gawane","alternates":["Gauani","Gawani","Gawāni","Gewane","Gewani","Gewanē","Gewanī","Gouani"],"lat":10.16658,"lng":40.64689,"population":11279},{"name":"Debre Werk’","ascii":"Debre Werk'","alternates":["Dabra Wark'","Dabra Wark’","Dabra-Warq","Debra Uerch","Debra Uorc","Debra Uorch","Debra Uork","Debra Wark","Debra Werk","Debra Work"],"lat":10.66667,"lng":38.16667,"population":10579},{"name":"Debre Sīna","ascii":"Debre Sina","alternates":["Debra Sina"],"lat":9.84752,"lng":39.76027,"population":9409},{"name":"Kara K’orē","ascii":"Kara K'ore","alternates":["Caracore","Karakore","Karakorie"],"lat":10.42154,"lng":39.93512,"population":7487},{"name":"Mēga","ascii":"Mega","alternates":["Megga"],"lat":4.05,"lng":38.3,"population":6884},{"name":"Hāgere Selam","ascii":"Hagere Selam","alternates":["Agere Selam","Agheresalam","Hula"],"lat":6.48333,"lng":38.51667,"population":5169},{"name":"Konso","ascii":"Konso","alternates":["Консо"],"lat":5.25,"lng":37.48333,"population":4593},{"name":"Lobuni","ascii":"Lobuni","alternates":["Omorate","Оморате"],"lat":4.83333,"lng":36.1,"population":3363},{"name":"Dewelē","ascii":"Dewele","alternates":["Daouenle","Daouénle","Dawanle","Dawanlē","Douanle","Douanlé","Duanle"],"lat":11.03472,"lng":42.63139,"population":3357},{"name":"Turmi","ascii":"Turmi","alternates":["trmy","tu er mi","Турми","ترمی","图尔米","圖爾米"],"lat":4.96667,"lng":36.48333,"population":1087},{"name":"Baqulo Sanyo","ascii":"Baqulo Sanyo","alternates":["Baluqo Saynno","Beklo Segno","beqilo senyo","በቅሎ ሰኞ"],"lat":6.83128,"lng":37.62125,"population":0},{"name":"Bitana","ascii":"Bitana","alternates":["Biixxanna"],"lat":6.96602,"lng":38.03423,"population":0},{"name":"Halale","ascii":"Halale","alternates":["Halaale","halale","ሃላሌ"],"lat":6.75249,"lng":37.34174,"population":0},{"name":"Hobicha Bada","ascii":"Hobicha Bada","alternates":["Bada","Habbichcha Baddaa","hobica bada","ሆቢቻ ባዳ"],"lat":6.7648,"lng":37.87528,"population":0},{"name":"Lasho","ascii":"Lasho","alternates":["Laashsho","lasho","ላሾ"],"lat":6.78534,"lng":37.47323,"population":0},{"name":"Paracho","ascii":"Paracho","alternates":["Faracho"],"lat":6.66201,"lng":37.83818,"population":0},{"name":"Selamber","ascii":"Selamber","alternates":[],"lat":6.47777,"lng":37.46228,"population":0}]