[{"name":"Bamako","ascii":"Bamako","alternates":["BKO","Bamaco","Bamaco - Bamako","Bamakas","Bamaku","Bamakó","Bamakɔ","Bammaco","Bammako","Bàmakɔ","Mpamako","ba ma ke"],"lat":12.60915,"lng":-7.97522,"population":4227569},{"name":"Sikasso","ascii":"Sikasso","alternates":["KSS","Sikasas","Sikaso","shikaso","sikaso","sykasw","xi ka suo","Σικασσό","Сикасо","Сикассо","Сікасо","سيكاسو"],"lat":11.31755,"lng":-5.66654,"population":349324},{"name":"Koutiala","ascii":"Koutiala","alternates":["KTX","Kucala","Kutiala","ku jia la","Кутиала","庫佳拉"],"lat":12.38723,"lng":-5.46507,"population":218031},{"name":"Ségou","ascii":"Segou","alternates":["SZU","Segi","Segoukoro","Segu","Segú","Senkou","Ségoukoro","sai gu","segu","sgw","syghw","sygw"],"lat":13.44032,"lng":-6.25947,"population":205787},{"name":"Kayes","ascii":"Kayes","alternates":["KYS","Kaes","Kagies","Kajes","Kajesas","Kayi","Káyì","ka yi","ka'esa","kai","kay","kayesa"],"lat":14.44776,"lng":-11.44393,"population":194716},{"name":"Mopti","ascii":"Mopti","alternates":["MZI","Moptis","Moti","Móti","Mɔputi","mapti","mbty","mo pu ti","mobti","mopati","mopti","moputi"],"lat":14.4843,"lng":-4.18296,"population":186187},{"name":"Kalaban Koro","ascii":"Kalaban Koro","alternates":["Kalaba","Kalabancoro","Kalabankɔrɔ"],"lat":12.57329,"lng":-8.02907,"population":148247},{"name":"Gao","ascii":"Gao","alternates":["GAQ","Gawo","Gàwó","Nkao","ga'o","gao","gaw","gawo","gayw","ghaw","jaw","jia ao"],"lat":16.27167,"lng":-0.04472,"population":133110},{"name":"Kati","ascii":"Kati","alternates":["Kati Ville","Katis","ka di","katy","Кати","كاتي","卡蒂"],"lat":12.74409,"lng":-8.07257,"population":130254},{"name":"San","ascii":"San","alternates":[],"lat":13.29701,"lng":-4.89627,"population":103227},{"name":"Bougouni","ascii":"Bougouni","alternates":["Bougoum","Buguni","Bugunin"],"lat":11.41769,"lng":-7.48323,"population":90234},{"name":"Timbuktu","ascii":"Timbuktu","alternates":["TOM","Timbocto","Timboctu","Timboctó","Timboctú","Timboektoe","Timbouctou","Timbuctoo","Timbuctu","Timbuctù","Timbuctú","Timbuktuo"],"lat":16.77348,"lng":-3.00742,"population":84208},{"name":"Kita","ascii":"Kita","alternates":[],"lat":13.03885,"lng":-9.48817,"population":75598},{"name":"Dialakorodji","ascii":"Dialakorodji","alternates":["Dialakoroji","Jalakɔrɔji"],"lat":12.70354,"lng":-7.96463,"population":70619},{"name":"Koulikoro","ascii":"Koulikoro","alternates":["Koulikoro-Liberte","Koulikoro-Liberté","Kulikoras","Kulikoro","Kulikɔrɔ","Kulukɔrɔ","kaulikoro","ku li ke luo","kulikoro","kulikwero","kullikolo","kurikoro"],"lat":12.86273,"lng":-7.55985,"population":64128},{"name":"Fana","ascii":"Fana","alternates":[],"lat":12.7787,"lng":-6.9564,"population":56809},{"name":"Markala","ascii":"Markala","alternates":["Marakala"],"lat":13.68427,"lng":-6.07352,"population":53738},{"name":"Niono","ascii":"Niono","alternates":["Ɲɔnɔ","Нионо"],"lat":14.25054,"lng":-5.98679,"population":52584},{"name":"Nioro","ascii":"Nioro","alternates":["NIX","Nioro du Sahel","Nioro-du-Sahel","Noiro","Ɲooro","Ɲòoro"],"lat":15.23074,"lng":-9.59356,"population":51933},{"name":"Pèlèngana","ascii":"Pelengana","alternates":["Flangana","Palenguena","Palenguéna","Pelenguena","Pelennguena","Pélenguéna","Pélennguéna","Pɛlinnana","Pɛ̀linŋana"],"lat":13.4274,"lng":-6.222,"population":50552},{"name":"Kolokani","ascii":"Kolokani","alternates":["Kokolani","Kɔlɔkanin","Колокани"],"lat":13.57388,"lng":-8.03267,"population":48774},{"name":"Bourem","ascii":"Bourem","alternates":["Burem","Burɛmu"],"lat":16.955,"lng":-0.34861,"population":42371},{"name":"Sangarébougou","ascii":"Sangarebougou","alternates":[],"lat":12.70581,"lng":-7.90268,"population":42314},{"name":"Massiogo","ascii":"Massiogo","alternates":[],"lat":10.30635,"lng":-6.10972,"population":41317},{"name":"Djenné","ascii":"Djenne","alternates":["Djénné","Jene","Jɛnɛ","Jɛ̀nɛ","dzhene","jnh","Джене","جنه"],"lat":13.90608,"lng":-4.55332,"population":40489},{"name":"Kidal","ascii":"Kidal","alternates":["Kidal'","Kidali","Kidalis","Kintal","ji da er","kidal","kidala","kidaru","kidaል","kydal","Κιντάλ","Кидал"],"lat":18.44345,"lng":1.40921,"population":40030},{"name":"Kadiolo","ascii":"Kadiolo","alternates":["Kajolo"],"lat":10.55,"lng":-5.76667,"population":38149},{"name":"Douentza","ascii":"Douentza","alternates":["Douenza","Duwanza","Dúwanzà"],"lat":15.00605,"lng":-2.9517,"population":37002},{"name":"Bla","ascii":"Bla","alternates":["Bila"],"lat":12.95083,"lng":-5.75557,"population":33779},{"name":"Moninnpébougou","ascii":"Moninnpebougou","alternates":["Manimpe","Manimpé","Monempe","Monempé","Monimpe","Monimpebougou","Monimpebugu","Monimpé","Monimpébougou","Mɔninpebugu"],"lat":14.1508,"lng":-5.5209,"population":32899},{"name":"Zégoua","ascii":"Zegoua","alternates":["Zegua","Zeguwa","Zekoua","Zékoua"],"lat":10.48804,"lng":-5.64943,"population":31593},{"name":"Diré","ascii":"Dire","alternates":[],"lat":16.25705,"lng":-3.40126,"population":31348},{"name":"Diéma","ascii":"Diema","alternates":["Diena","Diéna","Jema","Jɛma"],"lat":14.54,"lng":-9.1921,"population":30592},{"name":"Banamba","ascii":"Banamba","alternates":["Bananba"],"lat":13.54773,"lng":-7.44808,"population":30591},{"name":"Bankass","ascii":"Bankass","alternates":["Bankas","Bankasse","Bankassi","Bankassé"],"lat":14.0775,"lng":-3.51594,"population":30159},{"name":"Bamba","ascii":"Bamba","alternates":["Banba"],"lat":10.38333,"lng":-7.15,"population":28524},{"name":"Bafoulabé","ascii":"Bafoulabe","alternates":["Bafilabɛn","Bafulabe","Báfilabɛn"],"lat":13.80843,"lng":-10.83344,"population":26823},{"name":"Mahina","ascii":"Mahina","alternates":[],"lat":13.9044,"lng":-10.0986,"population":26754},{"name":"Sibi","ascii":"Sibi","alternates":["Siby"],"lat":12.37549,"lng":-8.33487,"population":26633},{"name":"Diourou","ascii":"Diourou","alternates":[],"lat":13.68719,"lng":-5.83203,"population":26559},{"name":"Bandiagara","ascii":"Bandiagara","alternates":["Banjagara","Bánjagara"],"lat":14.35005,"lng":-3.61038,"population":26460},{"name":"Dougabougou","ascii":"Dougabougou","alternates":["Douabougou"],"lat":13.82049,"lng":-6.12057,"population":26399},{"name":"Koro","ascii":"Koro","alternates":[],"lat":14.064,"lng":-3.07539,"population":24694},{"name":"Yanfolila","ascii":"Yanfolila","alternates":[],"lat":11.18333,"lng":-8.15,"population":24399},{"name":"Siribala Coro","ascii":"Siribala Coro","alternates":["Siribala","Siribala-Koro"],"lat":14.0432,"lng":-6.1067,"population":24301},{"name":"Kabala","ascii":"Kabala","alternates":[],"lat":12.52549,"lng":-8.03927,"population":24241},{"name":"Finnkolo","ascii":"Finnkolo","alternates":["Fenkolo","Finkolo"],"lat":11.26822,"lng":-5.51054,"population":24229},{"name":"Moribabougou","ascii":"Moribabougou","alternates":["Maribabougou","Moribabugu"],"lat":12.68672,"lng":-7.86378,"population":24085},{"name":"Nara","ascii":"Nara","alternates":["NRM"],"lat":15.16931,"lng":-7.28985,"population":23599},{"name":"Dioïla","ascii":"Dioila","alternates":["Doila","Doïla","Dɔyila"],"lat":12.48735,"lng":-6.80313,"population":23535},{"name":"Kouri","ascii":"Kouri","alternates":["Koury","Kuri"],"lat":12.18396,"lng":-4.80284,"population":22991},{"name":"Sirakoro Méguétana","ascii":"Sirakoro Meguetana","alternates":["Siracoro Meguetana","Sirakoro"],"lat":12.56439,"lng":-7.91551,"population":22499},{"name":"I-n-Tillit","ascii":"I-n-Tillit","alternates":[],"lat":15.54611,"lng":-0.46056,"population":22100},{"name":"Toubakoura","ascii":"Toubakoura","alternates":["Touba"],"lat":13.4637,"lng":-7.38278,"population":22059},{"name":"Goundam","ascii":"Goundam","alternates":["GUD","Gundamu"],"lat":16.41453,"lng":-3.67075,"population":19400},{"name":"Andéranboukan","ascii":"Anderanboukan","alternates":["Amderamboukan","Amderamboukane","Amdéramboukane","Anderabukani","Anderamboukan","Anderamboukane","Anderanboukane","Anderanbukani","Andéramboukane","Andéranboukane"],"lat":15.4275,"lng":3.0175,"population":18688},{"name":"Yorosso","ascii":"Yorosso","alternates":["Joroso","Yɔrɔso","Йоросо"],"lat":12.35811,"lng":-4.77688,"population":17447},{"name":"Kangaba","ascii":"Kangaba","alternates":["Kaba","Kangara","Кангаба"],"lat":11.93333,"lng":-8.41667,"population":17232},{"name":"Sagalo","ascii":"Sagalo","alternates":["Sagallo"],"lat":12.2,"lng":-10.7,"population":15830},{"name":"Ké-Macina","ascii":"Ke-Macina","alternates":["Ke Machine","Ke Macina","Ke Massina","Ke-Masina","Ke-Masino","Ké Macina","Ké Massina","Kɛɛmasina","Kɛ̀ɛmasina"],"lat":13.9641,"lng":-5.35791,"population":15750},{"name":"Ménaka","ascii":"Menaka","alternates":["Menaca","mei na ka","menaka","mnaka","mnka","mynka","Μενακά","Менака","مناکا","منكا","مینکا","मेनका"],"lat":15.91985,"lng":2.39609,"population":14085},{"name":"Tessit","ascii":"Tessit","alternates":["Tesiti"],"lat":15.21667,"lng":-0.3,"population":13588},{"name":"Kokofata","ascii":"Kokofata","alternates":[],"lat":12.88333,"lng":-9.95,"population":12985},{"name":"Abdel Begrou","ascii":"Abdel Begrou","alternates":["'Adel Bagrou","Abdel Bagrou","’Adel Bagrou"],"lat":15.4975,"lng":-6.95056,"population":10599},{"name":"Kolondiéba","ascii":"Kolondieba","alternates":["Kɔlɔnjɛba"],"lat":11.08943,"lng":-6.8929,"population":10041},{"name":"Inékar","ascii":"Inekar","alternates":["Inekari"],"lat":15.95944,"lng":3.14111,"population":8714},{"name":"Ntossoni","ascii":"Ntossoni","alternates":["Ntosoni"],"lat":12.5304,"lng":-5.77003,"population":8700},{"name":"Ténenkou","ascii":"Tenenkou","alternates":["Tɛnɛnkun"],"lat":14.45722,"lng":-4.9169,"population":7471},{"name":"Niafunké","ascii":"Niafunke","alternates":["Matounke","Niafounke","Niafounké","Ɲafunke"],"lat":15.9322,"lng":-3.9906,"population":6901},{"name":"Kinmparana","ascii":"Kinmparana","alternates":["Kemparana","Kimpanana","Kimparala","Kimparana"],"lat":12.84217,"lng":-4.9245,"population":6014},{"name":"Sokolo","ascii":"Sokolo","alternates":["Soala","Sokolon","Swala","Соколо"],"lat":14.7328,"lng":-6.1219,"population":4374},{"name":"Araouane","ascii":"Araouane","alternates":["Araouan","Araoune","Aravan","Arawan","a la wan","arawan","Араван","أراوان","اراوان","阿拉萬"],"lat":18.90476,"lng":-3.52649,"population":4026},{"name":"Faladié","ascii":"Faladie","alternates":["Faladje","Faladjé","Faladye","Faladyé","Falajɛ","فالاڈیی"],"lat":13.13663,"lng":-8.33554,"population":3685},{"name":"Taoudenni","ascii":"Taoudenni","alternates":["Taodeni","Taodenni","Taodéni","Taoudeni","Taoudenit","Taoudéni","Taoudénit","Taudeni","Taudenio","Taudenis","Tawudeni","Taŭdenio"],"lat":22.67691,"lng":-3.97922,"population":3019},{"name":"Ansongo","ascii":"Ansongo","alternates":[],"lat":15.6597,"lng":0.5022,"population":3000},{"name":"Zambla","ascii":"Zambla","alternates":[],"lat":10.24245,"lng":-6.98682,"population":1099},{"name":"Abeïbara","ascii":"Abeibara","alternates":[],"lat":19.11667,"lng":1.75,"population":0},{"name":"Barouéli","ascii":"Baroueli","alternates":["Barawuli","Barweli","Barwéli"],"lat":13.077,"lng":-6.8312,"population":0},{"name":"Doumba","ascii":"Doumba","alternates":[],"lat":13.1042,"lng":-7.61121,"population":0},{"name":"Figuira-Toma","ascii":"Figuira-Toma","alternates":[],"lat":11.91667,"lng":-8.36667,"population":0},{"name":"Gourma Rharous","ascii":"Gourma Rharous","alternates":["Ararusi","Gourma-Barous","Gourma-Rarous","Gourma-Rharous","Rharous"],"lat":16.87778,"lng":-1.92306,"population":0},{"name":"Koula","ascii":"Koula","alternates":["Kula"],"lat":13.11382,"lng":-7.65231,"population":0},{"name":"Kènènkoun","ascii":"Kenenkoun","alternates":["Kenenkou","Keninkou","Kénenkou","Kéninkou"],"lat":13.10624,"lng":-7.24337,"population":0},{"name":"Leleni","ascii":"Leleni","alternates":[],"lat":12.38944,"lng":-5.24528,"population":0},{"name":"Molodo","ascii":"Molodo","alternates":["Molodo-Centre"],"lat":14.23719,"lng":-6.02269,"population":0},{"name":"N'Débougou","ascii":"N'Debougou","alternates":["Debougou","Débougou","Ndebougou","Ndébougou"],"lat":14.37388,"lng":-5.97821,"population":0},{"name":"Sagala","ascii":"Sagala","alternates":["Segala","Segela","Seguela","Séguéla","Ségéla"],"lat":14.11266,"lng":-6.72865,"population":0},{"name":"Tessalit","ascii":"Tessalit","alternates":["Tesalit","Tesaliti","tai sa li","Τεσσαλίτ","Тесалит","Тессаліт","泰薩利"],"lat":20.20126,"lng":1.01186,"population":0},{"name":"Ti-n-Essako","ascii":"Ti-n-Essako","alternates":["Tin-Essako","Tinisako"],"lat":18.45059,"lng":2.48795,"population":0},{"name":"Tominian","ascii":"Tominian","alternates":["Tomina","Tomiɲan"],"lat":13.28737,"lng":-4.59317,"population":0},{"name":"Werekela","ascii":"Werekela","alternates":["Werekela N8"],"lat":14.33263,"lng":-5.94515,"population":0},{"name":"Youwarou","ascii":"Youwarou","alternates":["Youvarou","Yuwaru"],"lat":15.3684,"lng":-4.2628,"population":0},{"name":"Yélimané","ascii":"Yelimane","alternates":["EYL","Yelimani"],"lat":15.11868,"lng":-10.57729,"population":0}]