[{"name":"Doha","ascii":"Doha","alternates":["Ad Dawha","Ad Dawhah","Ad Dawḩa","Ad Dawḩah","Ad Doha","Ad Dowhah","Ad-Dauha","Ad-Dawhah","Ad-Dawḩah","DOH","Daeuha","Dauha"],"lat":25.28545,"lng":51.53096,"population":344939},{"name":"Ar Rayyān","ascii":"Ar Rayyan","alternates":["Al Raiyan","Al Rayyan","Ar-Rajan","Ar-Rajjan","Raiyan","alryan","ar-Rayyan","ara raiyana","ara rayyana","arrayan","arryan","ʿeri rayani"],"lat":25.29194,"lng":51.42444,"population":272465},{"name":"Lusail","ascii":"Lusail","alternates":[],"lat":25.4175,"lng":51.5075,"population":198600},{"name":"Al Maţār al ‘Atīq","ascii":"Al Matar al 'Atiq","alternates":["AlMataral`Atiq","المطار العتيق"],"lat":25.25138,"lng":51.55569,"population":76774},{"name":"Al Manşūrah","ascii":"Al Mansurah","alternates":["aalmansurat","اَلْمَنْصُورَة"],"lat":25.26807,"lng":51.53219,"population":65493},{"name":"Az̧ Z̧a‘āyin","ascii":"Az Za'ayin","alternates":["Ad Da`ayin","Al Da`ain","Al Da‘ain","Al Dha'Sin","Al Dha’Sin","Az Za`a'in","Az Za`ayim","Az Za`ayin","Az-Zaajin","Az-Zaajyn","Az̧ Z̧a‘āyim","Az̧ Z̧a‘ā’in"],"lat":25.57744,"lng":51.48306,"population":54339},{"name":"Madīnat Khalīfah","ascii":"Madinat Khalifah","alternates":["madinat khalifat","مَدِينَة خَلِيفَة"],"lat":25.32047,"lng":51.47787,"population":44459},{"name":"An Najmah","ascii":"An Najmah","alternates":["aalnajmat","اَلنَّجْمَة"],"lat":25.26704,"lng":51.54322,"population":43695},{"name":"Al ‘Unayzah","ascii":"Al 'Unayzah","alternates":["Al `Unayzah","Anaiza","Aneiza","`Unayzah","العنيزة","عُنَيْزَة","‘Unayzah"],"lat":25.33759,"lng":51.50953,"population":39761},{"name":"Umm Ghuwaylīnah","ascii":"Umm Ghuwaylinah","alternates":["Umm Ghuwaylina","Umm Ghuwaylīnā","aum ghuaylinat","أُمّ غُوَيْلِينَة"],"lat":25.58716,"lng":51.14986,"population":39457},{"name":"As Sadd","ascii":"As Sadd","alternates":["aalsad","اَلسَّدّ"],"lat":25.28617,"lng":51.50074,"population":36077},{"name":"Farīj al Amīr","ascii":"Farij al Amir","alternates":["FarijalAmir","fryjalamyr","فريج الأمير"],"lat":25.28733,"lng":51.47136,"population":33263},{"name":"Farīj Kulayb","ascii":"Farij Kulayb","alternates":["fryj klyb","فريج كليب"],"lat":25.31313,"lng":51.4929,"population":33263},{"name":"Umm Şalāl Muḩammad","ascii":"Umm Salal Muhammad","alternates":["Umm Salal Mohammad","Umm Ses Salal","Umm Silal Mohammed","Umm Slal Mohammed","Umm es Salal","Umm es Slal","am slal mhmd","aum salaal muhamad","أم صلال محمد","أُمّ صَلاَل مُحَمَّد"],"lat":25.41524,"lng":51.40647,"population":29391},{"name":"Mu‘aydhir Rawḑat Rāshid","ascii":"Mu'aydhir Rawdat Rashid","alternates":["Mu`aydhir","Mu`aydhir Abu ad Dawm","Mu`aydhir Rawdat Rashid","Mu‘aydhir","Mu‘aydhir Abū ad Dawm","معيذر روضة راشد","مُعَيْذِر أَبُو اَلدَّوْم"],"lat":25.2617,"lng":51.39684,"population":27569},{"name":"As Sulţah al Jadīdah","ascii":"As Sultah al Jadidah","alternates":["As Salatah al Jadidah","As Salaţah al Jadīdah","aalsltat aaljadidat","اَلسّلطَة اَلْجَدِيدَة"],"lat":25.2604,"lng":51.51403,"population":27432},{"name":"Al Wakrah","ascii":"Al Wakrah","alternates":["Al Waqra","Al Waqrah","Al'-Vakra","Wakra","Wakrah","Waqra","ala oyakara","ala vakara","alwkrt","alwkrہ","aruwakura","Əl-Vakra"],"lat":25.17151,"lng":51.60337,"population":26436},{"name":"Ath Thumāmah Khamsūn","ascii":"Ath Thumamah Khamsun","alternates":["AthThumamahKhamsun","althmamt 50","الثمامة ٥٠"],"lat":25.21958,"lng":51.55323,"population":22284},{"name":"Ath Thumāmah Sab‘ah wa Arba‘ūn","ascii":"Ath Thumamah Sab'ah wa Arba'un","alternates":["AthThumamahSab`ahwaArba`un","althmamt 47","الثمامة ٤٧"],"lat":25.23903,"lng":51.56333,"population":22284},{"name":"Ath Thumāmah Sittah wa Arba‘ūn","ascii":"Ath Thumamah Sittah wa Arba'un","alternates":["AthThumamahSittahwaArba`un","althmamt 46","الثمامة ٤٦"],"lat":25.23404,"lng":51.54053,"population":22284},{"name":"Nu‘ayjah","ascii":"Nu'ayjah","alternates":["An Nu`ayiah","An Nu‘ayiah","Na'aijah","Naeeja","Naeejeh","Na’aijah","Nu`aija","Nu`auah","Nu`ayjah","Nu‘aija","Nu‘auah","نُعَيْجَة"],"lat":25.24617,"lng":51.53227,"population":19975},{"name":"Al Ghānim","ascii":"Al Ghanim","alternates":["aalghanim","اَلْغَانِم"],"lat":25.27987,"lng":51.54037,"population":19010},{"name":"Al Khawr","ascii":"Al Khawr","alternates":["Al Khor","Al'-Khaur","Al'-Khor","Al-Chaur","Al-Khaur","Chauras","Khaur Shaqiq","Khaur al-Mahanidah","Khawr Shaqiq","Khawr Shaqīq","Khor","Khor Shaqiq"],"lat":25.68389,"lng":51.50583,"population":18923},{"name":"Umm Lakhbā","ascii":"Umm Lakhba","alternates":["am lkhba","أم لخبا"],"lat":25.34157,"lng":51.4706,"population":16993},{"name":"Al Hilāl al Gharbīyah","ascii":"Al Hilal al Gharbiyah","alternates":["aalhilaal aalgharbiat","اَلْهِلاَل اَلْغَرْبِيَّة"],"lat":25.2586,"lng":51.53098,"population":15461},{"name":"Al Hilāl ash Sharqīyah","ascii":"Al Hilal ash Sharqiyah","alternates":["aalhilaal aalsharqiat","اَلْهِلاَل اَلشَّرْقِيَّة"],"lat":25.26042,"lng":51.54632,"population":15461},{"name":"Ad Dawḩah al Jadīdah","ascii":"Ad Dawhah al Jadidah","alternates":["aaldawhat aaljadidat","اَلدَّوْحَة اَلْجَدِيدَة"],"lat":25.27707,"lng":51.53286,"population":15000},{"name":"Al Markhīyah","ascii":"Al Markhiyah","alternates":["Al Markiyah","Al Markīyah","aalmarkhiat","اَلْمَرْخِيَّة"],"lat":25.32488,"lng":51.49836,"population":11272},{"name":"Aţ Ţarfah","ascii":"At Tarfah","alternates":["altrft","الطرفة"],"lat":25.37335,"lng":51.48992,"population":8882},{"name":"Al Hitmī","ascii":"Al Hitmi","alternates":["aalhitmi","اَلْهِتْمِي"],"lat":25.28488,"lng":51.54612,"population":8386},{"name":"Farīq al Hitmī","ascii":"Fariq al Hitmi","alternates":["fryq alhtmy","فريق الهتمي"],"lat":25.28631,"lng":51.53261,"population":8386},{"name":"Ash Shīḩānīyah","ascii":"Ash Shihaniyah","alternates":["Al Shahaniyah","Ash Shahaniyah","Ash Shayhaniyah","Ash Shayḩānīyah","Ash Shaḩānīyah","Ash-Shikhanijaly","Ash-Shikhanijja","aalshahaniat","alshhanyt","alshyhanyt","asa sihani'aha","asa sihaniyaha"],"lat":25.37088,"lng":51.22264,"population":8380},{"name":"Dukhān","ascii":"Dukhan","alternates":["Al Khathiyah","Dukhkhan","Dukhkhān","Ghariyat Adkhan","Ghariyat Dukhan","Ghāriyat Adkhān","Ghāriyat Dukhān","dukhan","دُخَان"],"lat":25.42485,"lng":50.78227,"population":7250},{"name":"Musay‘īd","ascii":"Musay`id","alternates":["Mesaieed","Umm Sa'id","Umm Sa`ad","Umm Sa‘ad","Umm Sa‘īd","أم سعيد","مسيعيد"],"lat":24.99226,"lng":51.55067,"population":5769},{"name":"Madīnat ash Shamāl","ascii":"Madinat ash Shamal","alternates":["Madinat ash-Shamal","Madinat-ash-Shamal'","madinata asa samala","madinati ʿeshi shamaል","madinattoashushamaru","mdynt alshmal","mdynہ ash shmal","Мадинат аш-Шамал","Мадинат-аш-Шамаль","مدينة الشمال","مدینة الشمال","مدینہ اش شمال"],"lat":26.12933,"lng":51.2009,"population":5267},{"name":"Al Wukayr","ascii":"Al Wukayr","alternates":["Al Wukair","aalwukayr","alwkyr","الوكير","اَلْوُكَيْر"],"lat":25.15107,"lng":51.53718,"population":5146},{"name":"Ar Ruways","ascii":"Ar Ruways","alternates":["Ar Ru'ays","Ar Ruwais","Ar Ru’ays","Ruwais","aalruways","alrwys","الرويس","اَلرُّؤَيْس"],"lat":26.13978,"lng":51.21493,"population":3334},{"name":"Umm Bāb","ascii":"Umm Bab","alternates":["aum bab","أُمّ بَاب"],"lat":25.21417,"lng":50.80722,"population":2500},{"name":"Al Ghuwayrīyah","ascii":"Al Ghuwayriyah","alternates":["Al Ghuwairiya","Al Ghuwairiyah","Ghuwairiyah","Ghuwairīyah","aalghuayriat","alghwyryt","الغويرية","اَلْغُوَيْرِيَّة"],"lat":25.82882,"lng":51.24567,"population":2332},{"name":"Al Jumaylīyah","ascii":"Al Jumayliyah","alternates":["Al Jamaliya","Al Jamliyah","Al Jamlīyah","Al Jumaliyah","Jimaliyah","Jimalīyah","aaljumayliat","aljmylyt","الجميلية","اَلْجُمَيْلِيَّة"],"lat":25.61068,"lng":51.09108,"population":1788},{"name":"Fuwayriţ","ascii":"Fuwayrit","alternates":["fuayrit","fwyrt","فويرط","فُوَيْرِط"],"lat":26.02565,"lng":51.36971,"population":1333},{"name":"Abū Samrah","ascii":"Abu Samrah","alternates":["abw smrt","أبو سمرة"],"lat":24.7437,"lng":50.83174,"population":938},{"name":"Umm Şalāl ‘Alī","ascii":"Umm Salal `Ali","alternates":["Umm Salal Ali","Umm Salal Əli","Umm Silal `Ali","Umm Slal Ali","Umm Şilāl ‘Alī","Umm-Salal-Ali","Umm-al-Salal","am slal ʿly","um'ma salala ali","uma salala ali","umusararuari","ʿuም salaል ʾali"],"lat":25.46972,"lng":51.3975,"population":0}]