[{"name":"São Tomé","ascii":"Sao Tome","alternates":["Saint Anna de Chaves","Salazar","San Tomas","San Tome","San Tomé","San Tomė","San-Tameh","San-Tome","Santo Tome","Santo Tomé","Santome","Sao Thome"],"lat":0.33756,"lng":6.7299,"population":53300},{"name":"Neves","ascii":"Neves","alternates":[],"lat":0.35671,"lng":6.54897,"population":8391},{"name":"Água Izé","ascii":"Agua Ize","alternates":["Aguã Ize"],"lat":0.21953,"lng":6.72782,"population":7445},{"name":"Folha Fede","ascii":"Folha Fede","alternates":[],"lat":0.284,"lng":6.684,"population":6685},{"name":"Riboque","ascii":"Riboque","alternates":[],"lat":0.33525,"lng":6.72318,"population":4640},{"name":"Almas","ascii":"Almas","alternates":[],"lat":0.29907,"lng":6.74467,"population":4601},{"name":"Pantufo","ascii":"Pantufo","alternates":[],"lat":0.31503,"lng":6.74348,"population":3977},{"name":"Dona Eugénia","ascii":"Dona Eugenia","alternates":["Dona Eugènia"],"lat":0.13982,"lng":6.61121,"population":3605},{"name":"São Marçal","ascii":"Sao Marcal","alternates":[],"lat":0.31917,"lng":6.72608,"population":2866},{"name":"Rosema","ascii":"Rosema","alternates":["Rozema"],"lat":0.3509,"lng":6.56948,"population":2587},{"name":"Agua Porca","ascii":"Agua Porca","alternates":[],"lat":0.33086,"lng":6.71058,"population":2048},{"name":"Bombom","ascii":"Bombom","alternates":[],"lat":0.31075,"lng":6.72816,"population":1754},{"name":"Almeirim","ascii":"Almeirim","alternates":[],"lat":0.31666,"lng":6.71666,"population":1591},{"name":"Piedade","ascii":"Piedade","alternates":[],"lat":0.29581,"lng":6.66424,"population":1408},{"name":"Micolo","ascii":"Micolo","alternates":[],"lat":0.40314,"lng":6.68857,"population":1404},{"name":"Ribeira Afonso","ascii":"Ribeira Afonso","alternates":["リベリア・アフォンソ"],"lat":0.196,"lng":6.701,"population":1300},{"name":"Changra","ascii":"Changra","alternates":[],"lat":0.34985,"lng":6.68657,"population":1224},{"name":"Santo António","ascii":"Santo Antonio","alternates":["Cidade de Santo Antonio","Cidade de Santo António","San Antonio","Santo Antonijus","Santo-Antoniu","Santu-Anton'ju","Sao Antonio","São Antõnio","sainto atoni'o","sainto entoniyo","sang tu xang tx ni xu","sanito ʿenitoniyo"],"lat":1.63943,"lng":7.41951,"population":1156},{"name":"Lemos","ascii":"Lemos","alternates":[],"lat":0.29922,"lng":6.69847,"population":1136},{"name":"Santo Amaro","ascii":"Santo Amaro","alternates":[],"lat":0.36574,"lng":6.68855,"population":1063},{"name":"Cova Barro","ascii":"Cova Barro","alternates":[],"lat":0.31499,"lng":6.7383,"population":1026},{"name":"Micondo","ascii":"Micondo","alternates":[],"lat":0.17121,"lng":6.67729,"population":1022},{"name":"Riboque Santana","ascii":"Riboque Santana","alternates":[],"lat":0.24745,"lng":6.7369,"population":1001},{"name":"Agostinho Neto","ascii":"Agostinho Neto","alternates":["Rio do Ouro"],"lat":0.36769,"lng":6.64396,"population":992},{"name":"Belém","ascii":"Belem","alternates":[],"lat":0.30154,"lng":6.67423,"population":932},{"name":"Monta Alegre","ascii":"Monta Alegre","alternates":[],"lat":0.30285,"lng":6.72292,"population":913},{"name":"Batepá","ascii":"Batepa","alternates":[],"lat":0.30061,"lng":6.66031,"population":909},{"name":"Obolongo","ascii":"Obolongo","alternates":[],"lat":0.28999,"lng":6.69322,"population":835},{"name":"Obo Izaquente","ascii":"Obo Izaquente","alternates":[],"lat":0.32022,"lng":6.68935,"population":795},{"name":"Porto Alegre","ascii":"Porto Alegre","alternates":["PGP"],"lat":0.03449,"lng":6.53404,"population":795},{"name":"Margarida Manuel","ascii":"Margarida Manuel","alternates":[],"lat":0.30252,"lng":6.71658,"population":775},{"name":"Capela","ascii":"Capela","alternates":[],"lat":0.30663,"lng":6.67997,"population":761},{"name":"Maianço","ascii":"Maianco","alternates":[],"lat":0.34916,"lng":6.6742,"population":749},{"name":"Boa Entrada","ascii":"Boa Entrada","alternates":[],"lat":0.35166,"lng":6.66321,"population":738},{"name":"Diogo Simão","ascii":"Diogo Simao","alternates":[],"lat":0.31467,"lng":6.69432,"population":703},{"name":"Ototó","ascii":"Ototo","alternates":[],"lat":0.31782,"lng":6.66321,"population":686},{"name":"Praia Morro Peixe","ascii":"Praia Morro Peixe","alternates":[],"lat":0.40553,"lng":6.63847,"population":685},{"name":"Monte Café","ascii":"Monte Cafe","alternates":[],"lat":0.30036,"lng":6.63977,"population":684},{"name":"Desejada","ascii":"Desejada","alternates":[],"lat":0.35619,"lng":6.67086,"population":656},{"name":"Melhorada","ascii":"Melhorada","alternates":[],"lat":0.30645,"lng":6.71216,"population":656},{"name":"Malanza","ascii":"Malanza","alternates":[],"lat":0.04851,"lng":6.53774,"population":645},{"name":"Diogo Vaz","ascii":"Diogo Vaz","alternates":[],"lat":0.3171,"lng":6.49846,"population":632},{"name":"Ponta Figo","ascii":"Ponta Figo","alternates":[],"lat":0.34551,"lng":6.54377,"population":615},{"name":"Pété-Pété","ascii":"Pete-Pete","alternates":[],"lat":0.30093,"lng":6.73957,"population":606},{"name":"Ribeira Peixe","ascii":"Ribeira Peixe","alternates":[],"lat":0.09038,"lng":6.61557,"population":590},{"name":"Torres Dias","ascii":"Torres Dias","alternates":[],"lat":0.30728,"lng":6.69628,"population":585},{"name":"Bela Vista","ascii":"Bela Vista","alternates":[],"lat":0.35927,"lng":6.68933,"population":517},{"name":"Guadalupe","ascii":"Guadalupe","alternates":[],"lat":0.37917,"lng":6.6375,"population":0},{"name":"São João dos Angolares","ascii":"Sao Joao dos Angolares","alternates":["Sao Jao","Sao Joao","São João","São Jão"],"lat":0.13417,"lng":6.64944,"population":0},{"name":"Trindade","ascii":"Trindade","alternates":[],"lat":0.29667,"lng":6.68139,"population":0}]