[{"name":"Manzini","ascii":"Manzini","alternates":["Bremersdorp","MTS","Maneini","Manzinis","Manêini","man qi ni","manajini","manazini","manizini","manjini","manzyny","mnzyny"],"lat":-26.49884,"lng":31.38004,"population":110537},{"name":"Mbabane","ascii":"Mbabane","alternates":["Embabane","Mabane","Mbaban","Mbabaneh","Mbabano","Mbabanė","Mbabàn","Mpampane","QMN","ababane","ambabane","ambabany"],"lat":-26.31667,"lng":31.13333,"population":76218},{"name":"Malkerns","ascii":"Malkerns","alternates":[],"lat":-26.52872,"lng":31.19193,"population":9724},{"name":"Nhlangano","ascii":"Nhlangano","alternates":["Goedgegun","Nkhlangano","nahalangano","nhlanganw","nhlanjanw","nhlanګanw","nihilanigano","nrangano","nہlanganw","Нхланганo","نهلانجانو","نهلانګانو"],"lat":-27.11222,"lng":31.19833,"population":9016},{"name":"Mhlume","ascii":"Mhlume","alternates":[],"lat":-26.02607,"lng":31.81423,"population":8652},{"name":"Hluti","ascii":"Hluti","alternates":[],"lat":-27.221,"lng":31.58685,"population":6763},{"name":"Big Bend","ascii":"Big Bend","alternates":[],"lat":-26.7905,"lng":31.93736,"population":6433},{"name":"Siteki","ascii":"Siteki","alternates":["Stegi","shiteki","siteki","sytky","sytyky","syٹyky","Ситеки","سيتيكي","سیتکی","سیتیکي","سیٹیکی","सितेकी"],"lat":-26.4525,"lng":31.94722,"population":6152},{"name":"Piggs Peak","ascii":"Piggs Peak","alternates":["Piggs-Pik","byjz byk","pgs pyk","pigasa pika","piggusupiku","pigsa pika","pygs pyk","pygz pyk","Пиггс-Пик","Піггс-Пик","بيجز بيك","پيگس پيک"],"lat":-25.96082,"lng":31.24666,"population":5750},{"name":"Lobamba","ascii":"Lobamba","alternates":["Labamba","Lobambo","Lobomba","lobamba","luo ban ba","lwbama","lwbamba","lwbmbh","robanba","Лабамба","Лобамба","לובמבה"],"lat":-26.46667,"lng":31.2,"population":4557},{"name":"Vuvulane","ascii":"Vuvulane","alternates":[],"lat":-26.07427,"lng":31.87672,"population":4155},{"name":"Kwaluseni","ascii":"Kwaluseni","alternates":[],"lat":-26.47675,"lng":31.33274,"population":3395},{"name":"Bhunya","ascii":"Bhunya","alternates":["Bunya"],"lat":-26.53847,"lng":31.01176,"population":3046},{"name":"Mhlambanyatsi","ascii":"Mhlambanyatsi","alternates":["EMhlambanyatsi","Mhlambanyati","Mkhlamban'jatsi","Mkhlambanjaci","Мхламбаньятсі","Мхламбаняци"],"lat":-26.45174,"lng":31.05248,"population":2886},{"name":"Hlathikhulu","ascii":"Hlathikhulu","alternates":["Hlatikulu"],"lat":-26.97991,"lng":31.32569,"population":2748},{"name":"Ezulwini","ascii":"Ezulwini","alternates":["Esulweni","Ezulweni"],"lat":-26.4,"lng":31.16667,"population":2661},{"name":"Bulembu","ascii":"Bulembu","alternates":["Compound","Emhlembi","Emlembe"],"lat":-25.95386,"lng":31.12715,"population":2260},{"name":"Kubuta","ascii":"Kubuta","alternates":[],"lat":-26.88026,"lng":31.48097,"population":2038},{"name":"Lavumisa","ascii":"Lavumisa","alternates":["Gollel"],"lat":-27.31005,"lng":31.89198,"population":2000},{"name":"Thunzini","ascii":"Thunzini","alternates":["Tahaneni","Tjaneni","Tshaneni"],"lat":-25.95764,"lng":31.7274,"population":1899},{"name":"Sidvokodvo","ascii":"Sidvokodvo","alternates":[],"lat":-26.6282,"lng":31.42021,"population":1746},{"name":"Darkton","ascii":"Darkton","alternates":["Darktown"],"lat":-26.23333,"lng":31.03333,"population":1281},{"name":"Nsoko","ascii":"Nsoko","alternates":["INsoko","Nsoka","en suo ke","恩索科"],"lat":-27.02921,"lng":31.94195,"population":1175},{"name":"Ngwenya","ascii":"Ngwenya","alternates":[],"lat":-26.2279,"lng":31.03926,"population":842},{"name":"Ntfonjeni","ascii":"Ntfonjeni","alternates":[],"lat":-25.82659,"lng":31.3273,"population":0}]